     3.02           OBSERVATION DATA    G                   RINEX VERSION / TYPE
G = GPS  R = GLONASS  E = GALILEO  S = GEO  M = MIXED       COMMENT             
GNSS-SDR            UNKNOWN USER        20210821 145117 UTC PGM / RUN BY / DATE 
GPS OBSERVATION DATA FILE GENERATED BY GNSS-SDR             COMMENT             
GNSS-SDR VERSION 0.0.14.git-next-f767f792b                  COMMENT             
See https://gnss-sdr.org                                    COMMENT             
DEFAULT MARKER NAME                                         MARKER NAME         
UNKNOWN USER        CTTC                                    OBSERVER / AGENCY   
GNSS-SDR            Software Receiver   0.0.14.gi           REC # / TYPE / VERS 
Antenna number      Antenna type                            ANT # / TYPE        
        0.0000        0.0000        0.0000                  APPROX POSITION XYZ 
        0.0000        0.0000        0.0000                  ANTENNA: DELTA H/E/N
G    4 C1C L1C D1C S1C                                      SYS / # / OBS TYPES 
DBHZ                                                        SIGNAL STRENGTH UNIT
  2012    09    14    12    45   18.1200000     GPS         TIME OF FIRST OBS   
                                                            END OF HEADER       
> 2012 09 14 12 45 19.0000000  0  5                                             
G06  25378871.591 8 133366867.059 8      -529.827 8        48.935               
G16  25564405.228 8 134341861.532 8     -2804.143 8        50.890               
G19  25641056.743 8 134744661.414 8      2612.141 8        48.130               
G10  27394951.166 7 143961449.854 7       628.233 7        43.376               
G03  24448045.666 8 128475336.609 8       755.870 8        50.323               
> 2012 09 14 12 45 20.0000000  0  5                                             
G06  25378974.982 8 133367398.284 8      -531.252 8        49.420               
G16  25564937.743 8 134344666.747 8     -2804.097 8        50.372               
G19  25640561.914 8 134742051.743 8      2607.533 8        48.084               
G10  27394833.677 7 143960824.288 7       624.974 7        43.108               
G03  24447901.838 8 128474579.610 8       754.507 8        49.834               
> 2012 09 14 12 45 21.0000000  0  5                                             
G06  25379076.031 8 133367930.142 8      -531.939 8        49.655               
G16  25565471.508 8 134347472.181 8     -2805.542 8        49.989               
G19  25640065.620 8 134739442.443 8      2608.982 8        48.584               
G10  27394714.866 7 143960199.307 7       625.418 7        42.496               
G03  24447758.725 8 128473823.289 8       757.419 8        50.166               
> 2012 09 14 12 45 22.0000000  0  5                                             
G06  25379176.240 8 133368462.626 8      -530.564 8        49.670               
G16  25566005.363 8 134350277.831 8     -2807.375 8        50.048               
G19  25639568.182 7 134736833.522 7      2609.729 7        47.306               
G10  27394595.304 7 143959574.896 7       627.675 7        42.970               
G03  24447612.074 8 128473067.650 8       755.969 8        50.899               
> 2012 09 14 12 45 23.0000000  0  5                                             
G06  25379275.735 8 133368995.745 8      -532.578 8        48.104               
G16  25566538.021 8 134353083.695 8     -2804.459 8        50.374               
G19  25639071.816 8 134734224.976 8      2605.365 8        48.376               
G10  27394478.655 7 143958951.061 7       623.321 7        43.587               
G03  24447469.140 8 128472312.697 8       754.569 8        51.549               
> 2012 09 14 12 45 24.0000000  0  5                                             
G06  25379377.428 7 133369529.503 7      -532.566 7        47.942               
G16  25567071.429 8 134355889.774 8     -2806.935 8        49.600               
G19  25638574.110 7 134731616.806 7      2608.731 7        47.779               
G10  27394361.416 7 143958327.795 7       626.981 7        42.436               
G03  24447324.812 8 128471558.419 8       753.839 8        50.804               
> 2012 09 14 12 45 25.0000000  0  5                                             
G06  25379478.584 8 133370063.897 8      -534.762 8        48.002               
G16  25567606.910 8 134358696.071 8     -2805.309 8        50.559               
G19  25638078.942 7 134729009.018 7      2609.073 7        47.559               
G10  27394244.803 7 143957705.108 7       619.250 7        42.323               
G03  24447179.394 8 128470804.824 8       752.030 8        50.075               
> 2012 09 14 12 45 26.0000000  0  5                                             
G06  25379579.330 8 133370598.924 8      -535.707 8        48.564               
G16  25568140.068 8 134361502.577 8     -2806.576 8        50.334               
G19  25637581.003 7 134726401.613 7      2608.573 7        47.587               
G10  27394121.918 7 143957082.990 7       622.157 7        43.037               
G03  24447035.834 8 128470051.905 8       752.025 8        50.490               
> 2012 09 14 12 45 27.0000000  0  5                                             
G06  25379680.111 8 133371134.592 8      -535.313 8        49.166               
G16  25568675.817 8 134364309.307 8     -2807.962 8        49.269               
G19  25637084.995 8 134723794.591 8      2608.459 8        48.110               
G10  27394007.896 7 143956461.442 7       622.308 7        43.460               
G03  24446892.882 8 128469299.670 8       752.505 8        50.602               
> 2012 09 14 12 45 28.0000000  0  5                                             
G06  25379782.822 8 133371670.886 8      -535.596 8        49.318               
G16  25569210.852 8 134367116.255 8     -2807.762 8        49.732               
G19  25636588.522 7 134721187.950 7      2607.270 7        47.816               
G10  27393882.437 7 143955840.486 7       619.758 7        42.695               
G03  24446749.304 8 128468548.109 8       752.365 8        50.772               
> 2012 09 14 12 45 29.0000000  0  5                                             
G06  25379883.943 8 133372207.811 8      -534.708 8        48.993               
G16  25569743.491 8 134369923.414 8     -2805.345 8        49.109               
G19  25636093.550 8 134718581.682 8      2606.596 8        48.600               
G10  27393766.986 7 143955220.082 7       624.546 7        42.053               
G03  24446604.869 8 128467797.231 8       750.792 8        51.098               
> 2012 09 14 12 45 30.0000000  0  5                                             
G06  25379987.119 8 133372745.369 8      -536.560 8        49.217               
G16  25570278.007 8 134372730.801 8     -2807.493 8        48.738               
G19  25635598.846 7 134715975.798 7      2604.810 7        47.827               
G10  27393645.369 6 143954600.276 6       621.043 6        41.673               
G03  24446462.757 8 128467047.038 8       750.503 8        49.779               
> 2012 09 14 12 45 31.0000000  0  5                                             
G06  25380090.938 8 133373283.577 8      -539.833 8        48.262               
G16  25570811.594 8 134375538.390 8     -2808.384 8        49.449               
G19  25635106.358 8 134713370.283 8      2605.430 8        48.171               
G10  27393530.686 6 143953981.030 6       618.164 6        41.997               
G03  24446320.162 8 128466297.526 8       747.690 8        50.449               
> 2012 09 14 12 45 32.0000000  0  5                                             
G06  25380189.789 8 133373822.403 8      -540.278 8        48.127               
G16  25571346.182 8 134378346.203 8     -2808.836 8        49.570               
G19  25634612.780 7 134710765.151 7      2605.884 7        47.915               
G10  27393411.035 7 143953362.364 7       623.180 7        42.164               
G03  24446177.031 8 128465548.690 8       750.298 8        51.096               
> 2012 09 14 12 45 33.0000000  0  5                                             
G06  25380291.714 8 133374361.865 8      -541.772 8        48.808               
G16  25571880.573 8 134381154.226 8     -2808.676 8        49.164               
G19  25634116.790 8 134708160.390 8      2607.189 8        48.743               
G10  27393292.456 7 143952744.275 7       621.292 7        42.610               
G03  24446036.152 8 128464800.540 8       748.337 8        51.604               
> 2012 09 14 12 45 34.0000000  0  5                                             
G06  25380394.461 8 133374901.963 8      -540.842 8        48.856               
G16  25572413.892 8 134383962.465 8     -2808.804 8        49.234               
G19  25633620.263 8 134705556.021 8      2603.060 8        49.231               
G10  27393176.611 7 143952126.743 7       621.587 7        42.776               
G03  24445894.307 8 128464053.071 8       747.491 8        50.442               
> 2012 09 14 12 45 35.0000000  0  5                                             
G06  25380498.709 7 133375442.690 7      -542.110 7        47.558               
G16  25572950.320 8 134386770.926 8     -2808.837 8        49.448               
G19  25633125.059 8 134702952.024 8      2601.914 8        48.143               
G10  27393056.888 7 143951509.802 7       615.756 7        42.010               
G03  24445752.928 8 128463306.285 8       748.576 8        49.294               
> 2012 09 14 12 45 36.0000000  0  5                                             
G06  25380602.939 8 133375984.052 8      -540.333 8        48.053               
G16  25573486.212 8 134389579.594 8     -2810.003 8        49.905               
G19  25632631.749 8 134700348.404 8      2605.327 8        48.424               
G10  27392942.491 6 143950893.435 6       614.481 6        41.392               
G03  24445611.280 8 128462560.173 8       745.345 8        51.480               
> 2012 09 14 12 45 37.0000000  0  5                                             
G06  25380702.630 8 133376526.041 8      -543.020 8        48.894               
G16  25574018.602 8 134392388.470 8     -2809.032 8        49.870               
G19  25632134.847 8 134697745.161 8      2603.456 8        48.506               
G10  27392825.735 6 143950277.638 6       616.563 6        41.237               
G03  24445469.596 8 128461814.752 8       743.738 8        52.200               
> 2012 09 14 12 45 38.0000000  0  5                                             
G06  25380807.361 8 133377068.663 8      -545.986 8        49.652               
G16  25574554.654 8 134395197.571 8     -2809.316 8        49.624               
G19  25631640.268 8 134695142.307 8      2602.941 8        48.597               
G10  27392710.640 7 143949662.396 7       620.081 7        42.269               
G03  24445327.984 8 128461070.011 8       743.461 8        51.291               
> 2012 09 14 12 45 39.0000000  0  5                                             
G06  25380910.483 8 133377611.923 8      -542.601 8        48.847               
G16  25575085.650 8 134398006.876 8     -2809.337 8        49.325               
G19  25631146.583 8 134692539.815 8      2600.659 8        48.682               
G10  27392593.920 7 143949047.744 7       615.901 7        42.088               
G03  24445184.836 8 128460325.950 8       744.082 8        49.649               
> 2012 09 14 12 45 40.0000000  0  5                                             
G06  25381012.658 8 133378155.813 8      -544.207 8        48.729               
G16  25575619.684 8 134400816.399 8     -2809.724 8        50.023               
G19  25630651.343 8 134689937.723 8      2600.709 8        48.451               
G10  27392480.988 7 143948433.668 7       610.175 7        42.758               
G03  24445042.241 8 128459582.567 8       743.983 8        50.389               
> 2012 09 14 12 45 41.0000000  0  5                                             
G06  25381116.262 7 133378700.331 7      -547.234 7        47.900               
G16  25576151.252 8 134403626.139 8     -2809.601 8        49.585               
G19  25630157.943 8 134687336.005 8      2600.732 8        48.859               
G10  27392364.732 6 143947820.150 6       614.320 6        41.706               
G03  24444900.772 8 128458839.865 8       743.106 8        49.961               
> 2012 09 14 12 45 42.0000000  0  5                                             
G06  25381222.315 8 133379245.488 8      -546.679 8        48.020               
G16  25576685.571 8 134406436.094 8     -2811.760 8        48.851               
G19  25629663.329 8 134684734.657 8      2601.961 8        48.174               
G10  27392249.244 7 143947207.230 7       613.135 7        42.862               
G03  24444758.391 8 128458097.845 8       740.589 8        49.780               
> 2012 09 14 12 45 43.0000000  0  5                                             
G06  25381325.848 8 133379791.279 8      -545.067 8        48.507               
G16  25577221.141 8 134409246.258 8     -2810.707 8        48.722               
G19  25629163.639 8 134682133.690 8      2599.457 8        48.515               
G10  27392134.186 7 143946594.865 7       612.311 7        43.660               
G03  24444616.350 8 128457356.502 8       741.905 8        50.289               
> 2012 09 14 12 45 44.0000000  0  5                                             
G06  25381429.953 7 133380337.710 7      -546.394 7        47.711               
G16  25577757.087 8 134412056.640 8     -2810.939 8        48.301               
G19  25628667.488 8 134679533.104 8      2599.311 8        48.051               
G10  27392014.570 7 143945983.084 7       611.128 7        42.424               
G03  24444475.632 8 128456615.843 8       740.768 8        49.857               
> 2012 09 14 12 45 45.0000000  0  5                                             
G06  25381534.505 8 133380884.773 8      -549.051 8        48.280               
G16  25578290.853 8 134414867.238 8     -2812.093 8        48.235               
G19  25628169.139 8 134676932.896 8      2601.661 8        48.054               
G10  27391898.958 7 143945371.863 7       615.055 7        42.793               
G03  24444337.772 8 128455875.863 8       740.677 8        50.426               
> 2012 09 14 12 45 46.0000000  0  5                                             
G06  25381638.038 7 133381432.475 7      -548.064 7        47.207               
G16  25578827.227 8 134417678.042 8     -2811.070 8        48.205               
G19  25627675.007 7 134674333.074 7      2600.771 7        47.785               
G10  27391782.380 7 143944761.219 7       609.885 7        42.313               
G03  24444197.715 8 128455136.570 8       739.299 8        50.478               
> 2012 09 14 12 45 47.0000000  0  5                                             
G06  25381742.018 7 133381980.807 7      -547.171 7        46.614               
G16  25579361.868 8 134420489.068 8     -2811.307 8        49.326               
G19  25627179.660 8 134671733.631 8      2598.378 8        48.039               
G10  27391665.231 7 143944151.166 7       607.324 7        43.596               
G03  24444057.247 8 128454397.958 8       738.401 8        50.412               
> 2012 09 14 12 45 48.0000000  0  5                                             
G06  25381847.284 7 133382529.776 7      -551.524 7        47.274               
G16  25579896.849 8 134423300.308 8     -2809.246 8        49.213               
G19  25626686.939 8 134669134.571 8      2598.424 8        48.429               
G10  27391550.655 7 143943541.652 7       611.214 7        42.517               
G03  24443916.224 8 128453660.021 8       735.586 8        50.424               
> 2012 09 14 12 45 49.0000000  0  5                                             
G06  25381950.406 7 133383079.383 7      -550.747 7        47.787               
G16  25580431.633 8 134426111.764 8     -2811.531 8        48.495               
G19  25626191.574 8 134666535.891 8      2600.724 8        48.046               
G10  27391428.663 7 143942932.750 7       607.416 7        42.234               
G03  24443776.256 8 128452922.766 8       735.321 8        49.649               
> 2012 09 14 12 45 50.0000000  0  5                                             
G06  25382058.299 8 133383629.626 8      -550.611 8        48.178               
G16  25580967.168 8 134428923.426 8     -2813.070 8        48.457               
G19  25625697.013 7 134663937.587 7      2600.242 7        47.311               
G10  27391311.156 6 143942324.396 6       610.053 6        41.484               
G03  24443636.342 8 128452186.191 8       738.247 8        50.910               
> 2012 09 14 12 45 51.0000000  0  5                                             
G06  25382163.083 8 133384180.484 8      -550.820 8        49.141               
G16  25581502.845 8 134431735.312 8     -2811.711 8        48.703               
G19  25625200.647 8 134661339.670 8      2594.951 8        48.556               
G10  27391197.652 6 143941716.639 6       604.933 6        40.615               
G03  24443495.230 8 128451450.295 8       734.613 8        50.707               
> 2012 09 14 12 45 52.0000000  0  5                                             
G06  25382266.902 8 133384731.983 8      -551.822 8        49.877               
G16  25582036.468 8 134434547.396 8     -2812.294 8        49.302               
G19  25624705.747 8 134658742.128 8      2598.731 8        48.622               
G10  27391082.058 6 143941109.426 6       610.481 6        40.180               
G03  24443354.476 8 128450715.079 8       734.430 8        51.925               
> 2012 09 14 12 45 53.0000000  0  5                                             
G06  25382370.578 8 133385284.112 8      -553.954 8        49.461               
G16  25582572.789 8 134437359.698 8     -2812.096 8        48.490               
G19  25624214.045 8 134656144.967 8      2597.093 8        48.481               
G10  27390967.499 6 143940502.807 6       610.621 6        41.368               
G03  24443215.491 8 128449980.546 8       736.155 8        51.923               
> 2012 09 14 12 45 54.0000000  0  5                                             
G06  25382476.292 8 133385836.882 8      -551.809 8        49.770               
G16  25583108.895 8 134440172.216 8     -2811.745 8        49.417               
G19  25623718.573 8 134653548.194 8      2597.108 8        48.803               
G10  27390852.905 6 143939896.759 6       608.124 6        41.456               
G03  24443076.505 8 128449246.696 8       734.695 8        50.742               
> 2012 09 14 12 45 55.0000000  0  5                                             
G06  25382580.021 8 133386390.287 8      -553.742 8        48.982               
G16  25583644.805 8 134442984.944 8     -2811.141 8        49.811               
G19  25623225.656 8 134650951.804 8      2594.065 8        48.870               
G10  27390741.492 6 143939291.289 6       599.607 6        41.651               
G03  24442935.394 8 128448513.535 8       731.702 8        51.032               
> 2012 09 14 12 45 56.0000000  0  5                                             
G06  25382686.199 8 133386944.332 8      -553.547 8        48.085               
G16  25584180.751 8 134445797.887 8     -2814.835 8        49.462               
G19  25622731.917 8 134648355.800 8      2594.704 8        48.100               
G10  27390625.129 6 143938686.386 6       603.180 6        41.257               
G03  24442798.428 8 128447781.051 8       733.595 8        50.107               
> 2012 09 14 12 45 57.0000000  0  5                                             
G06  25382790.054 8 133387499.006 8      -555.379 8        48.012               
G16  25584715.177 8 134448611.041 8     -2813.241 8        49.234               
G19  25622237.070 8 134645760.184 8      2594.892 8        49.105               
G10  27390507.283 6 143938082.050 6       606.709 6        40.857               
G03  24442659.496 8 128447049.245 8       731.710 8        50.957               
> 2012 09 14 12 45 58.0000000  0  5                                             
G06  25382896.625 7 133388054.311 7      -554.300 7        47.961               
G16  25585250.730 8 134451424.420 8     -2815.321 8        49.750               
G19  25621745.386 8 134643164.937 8      2595.660 8        48.948               
G10  27390393.368 6 143937478.301 6       604.152 6        41.888               
G03  24442519.724 8 128446318.132 8       729.823 8        49.892               
> 2012 09 14 12 45 59.0000000  0  5                                             
G06  25383002.570 7 133388610.253 7      -557.176 7        47.301               
G16  25585786.997 8 134454238.003 8     -2814.505 8        49.389               
G19  25621252.898 8 134640570.080 8      2592.358 8        48.340               
G10  27390277.362 6 143936875.117 6       601.908 6        41.939               
G03  24442383.330 8 128445587.690 8       729.870 8        50.265               
> 2012 09 14 12 46 00.0000000  0  5                                             
G06  25383105.370 7 133389166.810 7      -557.155 7        47.157               
G16  25586322.746 8 134457051.804 8     -2815.698 8        49.188               
G19  25620762.143 8 134637975.600 8      2591.573 8        49.060               
G10  27390162.196 7 143936272.522 7       603.263 7        42.323               
G03  24442243.880 8 128444857.938 8       728.356 8        50.643               
> 2012 09 14 12 46 01.0000000  0  5                                             
G06  25383212.477 8 133389723.998 8      -555.362 8        48.178               
G16  25586858.674 8 134459865.813 8     -2813.967 8        49.333               
G19  25620269.708 8 134635381.491 8      2596.997 8        49.530               
G10  27390047.763 7 143935670.482 7       601.095 7        42.272               
G03  24442107.039 8 128444128.865 8       730.153 8        50.950               
> 2012 09 14 12 46 02.0000000  0  5                                             
G06  25383319.584 8 133390281.824 8      -556.041 8        49.150               
G16  25587394.780 8 134462680.027 8     -2812.362 8        48.342               
G19  25619778.882 8 134632787.768 8      2594.119 8        49.762               
G10  27389932.633 7 143935069.016 7       602.330 7        42.979               
G03  24441966.178 8 128443400.473 8       727.662 8        51.743               
> 2012 09 14 12 46 03.0000000  0  5                                             
G06  25383426.655 8 133390840.285 8      -556.260 8        49.821               
G16  25587930.708 8 134465494.467 8     -2813.822 8        49.649               
G19  25619283.142 8 134630194.439 8      2594.085 8        49.953               
G10  27389816.841 7 143934468.139 7       601.562 7        42.924               
G03  24441828.157 8 128442672.758 8       724.990 8        50.664               
> 2012 09 14 12 46 04.0000000  0  5                                             
G06  25383533.334 8 133391399.379 8      -560.165 8        48.670               
G16  25588465.153 8 134468309.109 8     -2815.517 8        49.408               
G19  25618789.188 8 134627601.477 8      2590.954 8        49.807               
G10  27389707.215 7 143933867.826 7       597.177 7        43.003               
G03  24441688.636 8 128441945.726 8       729.431 8        51.398               
> 2012 09 14 12 46 05.0000000  0  5                                             
G06  25383641.638 7 133391959.114 7      -559.911 7        47.604               
G16  25588999.955 8 134471123.965 8     -2810.909 8        50.071               
G19  25618293.680 8 134625008.909 8      2591.619 8        49.340               
G10  27389593.586 7 143933268.097 7       600.496 7        43.260               
G03  24441553.028 8 128441219.382 8       727.851 8        51.185               
> 2012 09 14 12 46 06.0000000  0  5                                             
G06  25383748.923 8 133392519.468 8      -558.452 8        48.358               
G16  25589537.491 8 134473939.038 8     -2813.365 8        49.121               
G19  25617799.870 8 134622416.716 8      2588.565 8        48.704               
G10  27389479.832 7 143932668.930 7       597.324 7        43.085               
G03  24441414.633 8 128440493.723 8       723.944 8        50.377               
> 2012 09 14 12 46 07.0000000  0  5                                             
G06  25383856.870 8 133393080.462 8      -559.933 8        48.475               