     3.02           OBSERVATION DATA    G                   RINEX VERSION / TYPE
G = GPS  R = GLONASS  E = GALILEO  S = GEO  M = MIXED       COMMENT             
GNSS-SDR            UNKNOWN USER        20210820 120407 UTC PGM / RUN BY / DATE 
GPS OBSERVATION DATA FILE GENERATED BY GNSS-SDR             COMMENT             
GNSS-SDR VERSION 0.0.14.git-next-f767f792b                  COMMENT             
See https://gnss-sdr.org                                    COMMENT             
DEFAULT MARKER NAME                                         MARKER NAME         
UNKNOWN USER        CTTC                                    OBSERVER / AGENCY   
GNSS-SDR            Software Receiver   0.0.14.gi           REC # / TYPE / VERS 
Antenna number      Antenna type                            ANT # / TYPE        
        0.0000        0.0000        0.0000                  APPROX POSITION XYZ 
        0.0000        0.0000        0.0000                  ANTENNA: DELTA H/E/N
G    4 C1C L1C D1C S1C                                      SYS / # / OBS TYPES 
DBHZ                                                        SIGNAL STRENGTH UNIT
  2012    09    14    12    45   18.1200000     GPS         TIME OF FIRST OBS   
                                                            END OF HEADER       
> 2012 09 14 12 45 19.0000000  0  5                                             
G06  25378860.888 7 133366796.054 7      -530.088 7        44.580               
G16  25564392.255 7 134341788.530 7     -2801.706 7        46.241               
G19  25641043.877 7 134744595.414 7      2611.941 7        44.175               
G10  27394946.109 6 143961396.855 6       619.816 6        38.867               
G03  24448033.194 7 128475271.606 7       756.852 7        45.963               
> 2012 09 14 12 45 20.0000000  0  5                                             
G06  25378961.205 7 133367327.288 7      -531.579 7        45.041               
G16  25564926.664 7 134344593.748 7     -2802.078 7        45.864               
G19  25640550.317 7 134741985.741 7      2606.512 7        44.132               
G10  27394823.027 6 143960771.291 6       627.432 6        38.378               
G03  24447890.277 7 128474514.609 7       753.413 7        45.643               
> 2012 09 14 12 45 21.0000000  0  5                                             
G06  25379066.239 7 133367859.143 7      -533.541 7        44.658               
G16  25565459.715 7 134347399.180 7     -2807.250 7        45.736               
G19  25640053.487 7 134739376.446 7      2608.152 7        44.233               
G10  27394709.183 6 143960146.309 6       621.728 6        38.657               
G03  24447745.502 7 128473758.294 7       756.581 7        46.469               
> 2012 09 14 12 45 22.0000000  0  5                                             
G06  25379167.538 7 133368391.631 7      -530.881 7        44.712               
G16  25565993.498 7 134350204.827 7     -2808.010 7        46.122               
G19  25639555.280 7 134736767.516 7      2609.470 7        44.088               
G10  27394583.922 6 143959521.904 6       628.730 6        38.654               
G03  24447598.958 7 128473002.650 7       754.916 7        46.257               
> 2012 09 14 12 45 23.0000000  0  5                                             
G06  25379262.369 7 133368924.743 7      -532.856 7        44.278               
G16  25566525.102 7 134353010.696 7     -2806.724 7        46.052               
G19  25639058.843 7 134734158.976 7      2602.409 7        44.072               
G10  27394470.114 6 143958898.064 6       621.224 6        38.498               
G03  24447457.043 7 128472247.699 7       753.635 7        46.734               
> 2012 09 14 12 45 24.0000000  0  5                                             
G06  25379367.010 7 133369458.506 7      -533.664 7        43.720               
G16  25567061.333 7 134355816.776 7     -2807.773 7        45.687               
G19  25638558.618 7 134731550.808 7      2610.517 7        43.808               
G10  27394353.268 6 143958274.795 6       629.757 6        37.919               
G03  24447313.662 7 128471493.415 7       755.274 7        46.562               
> 2012 09 14 12 45 25.0000000  0  5                                             
G06  25379466.558 7 133369992.898 7      -536.981 7        43.954               
G16  25567593.562 7 134358623.074 7     -2805.697 7        46.092               
G19  25638065.808 7 134728943.020 7      2610.477 7        43.648               
G10  27394231.920 6 143957652.100 6       620.606 6        38.117               
G03  24447167.904 7 128470739.818 7       751.270 7        46.219               
> 2012 09 14 12 45 26.0000000  0  5                                             
G06  25379570.199 7 133370527.925 7      -535.345 7        44.315               
G16  25568128.007 7 134361429.575 7     -2808.006 7        45.971               
G19  25637567.351 7 134726335.617 7      2607.566 7        43.630               
G10  27394114.199 6 143957030.002 6       620.943 6        38.232               
G03  24447026.578 7 128469986.908 7       752.283 7        46.474               
> 2012 09 14 12 45 27.0000000  0  5                                             
G06  25379667.513 7 133371063.593 7      -531.797 7        44.606               
G16  25568662.076 7 134364236.306 7     -2808.277 7        45.443               
G19  25637072.594 7 134723728.586 7      2608.614 7        44.234               
G10  27393999.801 6 143956408.455 6       613.674 6        38.608               
G03  24446881.410 7 128469234.669 7       751.912 7        45.913               
> 2012 09 14 12 45 28.0000000  0  5                                             
G06  25379774.495 7 133371599.888 7      -537.337 7        45.117               
G16  25569198.736 7 134367043.256 7     -2809.288 7        45.474               
G19  25636577.622 7 134721121.953 7      2606.610 7        43.923               
G10  27393864.997 6 143955787.483 6       607.948 6        38.155               
G03  24446737.261 7 128468483.107 7       754.174 7        46.063               
> 2012 09 14 12 45 29.0000000  0  5                                             
G06  25379871.399 7 133372136.815 7      -534.409 7        44.926               
G16  25569730.876 7 134369850.412 7     -2803.118 7        45.438               
G19  25636079.291 7 134718515.677 7      2607.990 7        44.344               
G10  27393752.619 6 143955167.090 6       621.951 6        37.383               
G03  24446594.022 7 128467732.236 7       749.830 7        46.228               
> 2012 09 14 12 45 30.0000000  0  5                                             
G06  25379976.844 7 133372674.372 7      -535.644 7        44.781               
G16  25570265.821 7 134372657.806 7     -2808.537 7        45.165               
G19  25635585.498 7 134715909.798 7      2603.903 7        44.002               
G10  27393630.234 6 143954547.286 6       621.503 6        36.997               
G03  24446450.302 7 128466982.033 7       750.844 7        46.420               
> 2012 09 14 12 45 31.0000000  0  5                                             
G06  25380078.269 7 133373212.571 7      -540.670 7        44.466               
G16  25570799.640 7 134375465.388 7     -2809.493 7        45.043               
G19  25635097.459 7 134713304.280 7      2606.033 7        44.187               
G10  27393518.034 6 143953928.022 6       612.521 6        37.843               
G03  24446307.904 7 128466232.531 7       747.385 7        46.011               
> 2012 09 14 12 45 32.0000000  0  5                                             
G06  25380178.103 7 133373751.398 7      -541.580 7        44.114               
G16  25571335.854 7 134378273.200 7     -2809.076 7        44.972               
G19  25634601.308 7 134710699.159 7      2605.337 7        44.052               
G10  27393397.686 6 143953309.367 6       619.139 6        37.598               
G03  24446164.630 7 128465483.689 7       750.310 7        46.441               
> 2012 09 14 12 45 33.0000000  0  5                                             
G06  25380279.706 7 133374290.869 7      -540.331 7        44.221               