     3.02           OBSERVATION DATA    G                   RINEX VERSION / TYPE
G = GPS  R = GLONASS  E = GALILEO  S = GEO  M = MIXED       COMMENT             
GNSS-SDR            UNKNOWN USER        20210820 114601 UTC PGM / RUN BY / DATE 
GPS OBSERVATION DATA FILE GENERATED BY GNSS-SDR             COMMENT             
GNSS-SDR VERSION 0.0.14.git-next-f767f792b                  COMMENT             
See https://gnss-sdr.org                                    COMMENT             
DEFAULT MARKER NAME                                         MARKER NAME         
UNKNOWN USER        CTTC                                    OBSERVER / AGENCY   
GNSS-SDR            Software Receiver   0.0.14.gi           REC # / TYPE / VERS 
Antenna number      Antenna type                            ANT # / TYPE        
        0.0000        0.0000        0.0000                  APPROX POSITION XYZ 
        0.0000        0.0000        0.0000                  ANTENNA: DELTA H/E/N
G    4 C1C L1C D1C S1C                                      SYS / # / OBS TYPES 
DBHZ                                                        SIGNAL STRENGTH UNIT
  2012    09    14    12    46   18.1200000     GPS         TIME OF FIRST OBS   
    16    16   158     7                                    LEAP SECONDS        
                                                            END OF HEADER       
> 2012 09 14 12 46 19.0000000  0  5                                             
G06  25385132.111 7 133399764.810 7      -563.396 7        44.447               
G16  25596489.202 7 134510459.201 7     -2815.045 7        44.969               
G19  25611378.297 7 134588699.162 7      2583.343 7        44.140               
G10  27387987.089 6 143924877.054 6       592.214 6        37.359               
G03  24439616.062 7 128431047.147 7       715.768 7        46.330               
> 2012 09 14 12 46 20.0000000  0  5                                             
G06  25385243.220 7 133400334.051 7      -567.189 7        44.434               
G16  25597023.682 7 134513277.227 7     -2820.434 7        45.071               
G19  25610884.093 7 134586112.335 7      2590.575 7        44.284               
G10  27387877.820 6 143924285.925 6       599.481 6        37.426               
G03  24439482.419 7 128430331.046 7       717.992 7        46.266               
> 2012 09 14 12 46 21.0000000  0  5                                             
G06  25385347.861 7 133400903.912 7      -571.172 7        44.338               
G16  25597564.256 7 134516095.464 7     -2817.374 7        45.404               
G19  25610392.427 7 134583525.915 7      2586.210 7        43.869               
G10  27387769.766 6 143923695.378 6       588.239 6        37.574               
G03  24439343.077 7 128429615.619 7       715.137 7        46.336               
> 2012 09 14 12 46 22.0000000  0  5                                             
G06  25385457.256 7 133401474.414 7      -563.869 7        44.495               
G16  25598101.273 7 134518913.927 7     -2822.849 7        45.382               
G19  25609894.167 7 134580939.871 7      2583.300 7        44.016               
G10  27387648.025 6 143923105.414 6       590.685 6        37.982               
G03  24439206.665 7 128428900.873 7       718.904 7        46.826               
> 2012 09 14 12 46 23.0000000  0  5                                             
G06  25385567.382 7 133402045.566 7      -575.815 7        44.252               
G16  25598638.220 7 134521732.584 7     -2819.615 7        45.545               
G19  25609405.718 7 134578354.205 7      2584.462 7        44.010               
G10  27387539.452 6 143922516.003 6       583.431 6        37.922               
G03  24439075.095 7 128428186.805 7       711.600 7        46.162               
> 2012 09 14 12 46 24.0000000  0  5                                             
G06  25385675.776 7 133402617.324 7      -570.071 7        44.505               
G16  25599174.058 7 134524551.451 7     -2816.083 7        45.411               
G19  25608916.946 7 134575768.926 7      2585.626 7        44.157               
G10  27387427.699 6 143921927.189 6       586.668 6        37.599               
G03  24438936.610 7 128427473.411 7       712.752 7        46.022               
> 2012 09 14 12 46 25.0000000  0  5                                             
G06  25385784.116 7 133403189.724 7      -572.332 7        43.472               
G16  25599708.932 7 134527370.525 7     -2817.896 7        45.595               
G19  25608423.332 7 134573184.020 7      2585.324 7        44.272               
G10  27387315.696 6 143921338.891 6       588.702 6        37.933               
G03  24438799.197 7 128426760.711 7       714.666 7        46.461               
> 2012 09 14 12 46 26.0000000  0  5                                             
G06  25385895.190 7 133403762.743 7      -574.711 7        44.285               
G16  25600244.681 7 134530189.813 7     -2817.057 7        45.634               
G19  25607930.612 7 134570599.497 7      2589.052 7        43.778               
G10  27387211.502 6 143920751.228 6       585.294 6        38.088               
G03  24438663.786 7 128426048.692 7       710.457 7        46.473               
> 2012 09 14 12 46 27.0000000  0  5                                             
G06  25386004.887 7 133404336.397 7      -571.839 7        44.541               
G16  25600783.307 7 134533009.316 7     -2822.347 7        45.685               
G19  25607435.211 7 134568015.378 7      2579.547 7        43.844               
G10  27387101.608 6 143920164.110 6       590.026 6        38.009               
G03  24438528.589 7 128425337.353 7       710.088 7        46.069               
> 2012 09 14 12 46 28.0000000  0  5                                             
G06  25386117.659 7 133404910.692 7      -572.079 7        44.307               
G16  25601320.342 7 134535829.016 7     -2820.760 7        45.593               
G19  25606944.099 7 134565431.640 7      2588.827 7        44.082               
G10  27386985.924 6 143919577.572 6       580.073 6        38.446               
G03  24438393.410 7 128424626.690 7       709.963 7        46.548               
> 2012 09 14 12 46 29.0000000  0  5                                             
G06  25386227.482 7 133405485.621 7      -570.093 7        44.208               
G16  25601857.074 7 134538648.939 7     -2819.718 7        45.488               
G19  25606452.254 7 134562848.280 7      2585.374 7        44.179               
G10  27386869.811 6 143918991.613 6       581.821 6        38.213               
G03  24438257.623 7 128423916.720 7       710.451 7        47.094               
> 2012 09 14 12 46 30.0000000  0  5                                             
G06  25386331.480 7 133406061.175 7      -574.431 7        44.088               
G16  25602393.734 7 134541469.079 7     -2819.195 7        46.227               
G19  25605959.659 7 134560265.317 7      2587.899 7        44.266               
G10  27386763.133 6 143918406.235 6       587.810 6        38.369               
G03  24438124.713 7 128423207.436 7       709.923 7        46.346               
> 2012 09 14 12 46 31.0000000  0  5                                             
G06  25386441.392 7 133406637.378 7      -573.686 7        43.926               
G16  25602930.699 7 134544289.425 7     -2821.338 7        45.792               
G19  25605470.798 7 134557682.734 7      2577.126 7        43.983               
G10  27386651.934 6 143917821.419 6       578.097 6        37.986               
G03  24437988.319 7 128422498.834 7       710.967 7        46.837               
> 2012 09 14 12 46 32.0000000  0  5                                             
G06  25386549.678 7 133407214.202 7      -576.186 7        43.992               
G16  25603467.520 7 134547109.981 7     -2821.358 7        45.383               
G19  25604979.525 7 134555100.529 7      2585.503 7        44.365               
G10  27386538.591 6 143917237.158 6       581.023 6        37.868               
G03  24437855.606 7 128421790.904 7       711.585 7        46.667               
> 2012 09 14 12 46 33.0000000  0  5                                             
G06  25386659.376 7 133407791.668 7      -576.183 7        43.658               
G16  25604005.770 7 134549930.749 7     -2820.203 7        45.966               
G19  25604489.556 7 134552518.737 7      2580.477 7        43.652               
G10  27386430.322 6 143916653.464 6       587.597 6        38.663               
G03  24437722.928 7 128421083.684 7       704.291 7        47.008               
> 2012 09 14 12 46 34.0000000  0  5                                             
G06  25386771.004 7 133408369.766 7      -579.510 7        43.791               
G16  25604540.662 7 134552751.718 7     -2822.350 7        45.705               
G19  25603997.819 7 134549937.314 7      2580.736 7        43.519               
G10  27386320.928 6 143916070.375 6       592.455 6        37.982               
G03  24437589.768 7 128420377.130 7       707.724 7        47.263               
> 2012 09 14 12 46 35.0000000  0  5                                             
G06  25386879.862 7 133408948.513 7      -574.446 7        43.890               
G16  25605079.145 7 134555572.896 7     -2822.126 7        45.833               
G19  25603505.742 7 134547356.279 7      2579.638 7        43.827               
G10  27386209.407 6 143915487.859 6       582.031 6        38.201               
G03  24437456.823 7 128419671.265 7       703.616 7        47.011               
> 2012 09 14 12 46 36.0000000  0  5                                             
G06  25386994.385 7 133409527.889 7      -579.217 7        43.551               
G16  25605615.448 7 134558394.283 7     -2820.813 7        45.876               
G19  25603018.703 7 134544775.631 7      2581.476 7        44.172               
G10  27386095.403 6 143914905.889 6       577.758 6        38.094               
G03  24437319.463 7 128418966.078 7       704.630 7        46.637               
> 2012 09 14 12 46 37.0000000  0  5                                             
G06  25387104.636 7 133410107.903 7      -580.680 7        43.448               
G16  25606153.466 7 134561215.879 7     -2821.973 7        45.935               
G19  25602527.591 7 134542195.369 7      2579.986 7        44.458               
G10  27385982.864 6 143914324.517 6       581.786 6        38.264               
G03  24437186.375 7 128418261.563 7       706.521 7        46.492               
> 2012 09 14 12 46 38.0000000  0  5                                             
G06  25387209.420 7 133410688.531 7      -582.022 7        42.769               
G16  25606687.357 7 134564037.683 7     -2819.782 7        45.889               
G19  25602038.016 7 134539615.487 7      2578.339 7        44.634               
G10  27385876.704 6 143913743.720 6       575.406 6        38.754               
G03  24437051.839 7 128417557.733 7       705.795 7        46.747               
> 2012 09 14 12 46 39.0000000  0  5                                             
G06  25387321.120 7 133411269.785 7      -580.242 7        43.344               
G16  25607225.733 7 134566859.694 7     -2823.848 7        45.681               
G19  25601547.868 7 134537035.999 7      2579.494 7        44.336               
G10  27385766.756 6 143913163.475 6       586.682 6        38.494               
G03  24436918.751 7 128416854.583 7       706.874 7        46.368               
> 2012 09 14 12 46 40.0000000  0  5                                             
G06  25387433.105 7 133411851.676 7      -582.108 7        43.753               
G16  25607761.964 7 134569681.916 7     -2824.488 7        46.012               
G19  25601056.917 7 134534456.900 7      2582.207 7        44.572               
G10  27385656.236 6 143912583.812 6       581.040 6        39.335               
G03  24436784.018 7 128416152.138 7       700.495 7        46.810               
> 2012 09 14 12 46 41.0000000  0  5                                             
G06  25387546.323 7 133412434.196 7      -585.756 7        43.266               
G16  25608300.000 7 134572504.341 7     -2820.787 7        45.682               
G19  25600569.504 7 134531878.177 7      2581.447 7        44.385               
G10  27385553.328 6 143912004.726 6       574.470 6        39.264               
G03  24436652.985 7 128415450.362 7       703.116 7        46.802               
> 2012 09 14 12 46 42.0000000  0  5                                             
G06  25387651.697 7 133413017.371 7      -581.748 7        43.425               
G16  25608837.715 7 134575326.990 7     -2821.757 7        45.591               
G19  25600082.305 7 134529299.845 7      2575.706 7        45.275               
G10  27385433.856 6 143911426.229 6       578.115 6        39.166               
G03  24436519.253 7 128414749.277 7       701.133 7        46.779               
> 2012 09 14 12 46 43.0000000  0  5                                             
G06  25387765.755 7 133413601.152 7      -581.474 7        43.785               
G16  25609375.716 7 134578149.839 7     -2822.256 7        45.389               
G19  25599589.406 7 134526721.899 7      2575.329 7        45.034               
G10  27385323.676 6 143910848.283 6       582.205 6        39.238               
G03  24436383.609 7 128414048.872 7       697.536 7        46.659               
> 2012 09 14 12 46 44.0000000  0  5                                             
G06  25387875.917 7 133414185.577 7      -586.240 7        43.832               
G16  25609912.537 7 134580972.891 7     -2822.946 7        46.277               
G19  25599099.115 7 134524144.339 7      2580.526 7        44.594               
G10  27385213.477 6 143910270.935 6       582.903 6        38.609               
G03  24436253.469 7 128413349.152 7       697.701 7        47.064               
> 2012 09 14 12 46 45.0000000  0  5                                             
G06  25387989.421 7 133414770.642 7      -583.633 7        44.005               
G16  25610448.500 7 134583796.160 7     -2819.972 7        45.985               
G19  25598608.200 7 134521567.175 7      2577.849 7        44.895               
G10  27385103.118 6 143909694.163 6       574.943 6        38.511               
G03  24436118.665 7 128412650.115 7       697.942 7        46.982               
> 2012 09 14 12 46 48.0000000  0  5                                             
G06  25388325.698 7 133416529.632 7      -585.793 7        44.214               
G16  25612063.967 7 134592267.218 7     -2820.455 7        45.221               
G19  25597135.935 7 134513838.013 7      2574.707 7        44.390               
G10  27384772.506 6 143907967.248 6       577.446 6        37.096               
G03  24435722.223 7 128410557.092 7       697.193 7        47.100               
> 2012 09 14 12 46 49.0000000  0  5                                             
G06  25388435.789 7 133417117.223 7      -589.409 7        44.658               
G16  25612601.164 7 134595091.330 7     -2823.330 7        45.168               
G19  25596643.072 7 134511262.389 7      2570.499 7        44.821               
G10  27384659.538 6 143907392.771 6       569.202 6        37.065               
G03  24435589.653 7 128409860.786 7       696.070 7        46.767               
> 2012 09 14 12 46 50.0000000  0  5                                             
G06  25388546.845 7 133417705.448 7      -593.348 7        44.082               
G16  25613136.805 7 134597915.625 7     -2822.839 7        46.054               
G19  25596156.498 7 134508687.179 7      2573.052 7        44.514               
G10  27384543.514 6 143906818.859 6       573.342 6        38.114               
G03  24435458.226 7 128409165.170 7       694.813 7        46.769               
> 2012 09 14 12 46 51.0000000  0  5                                             
G06  25388659.617 7 133418294.298 7      -592.167 7        44.220               
G16  25613674.359 7 134600740.144 7     -2821.129 7        45.687               
G19  25595666.548 7 134506112.333 7      2574.483 7        44.713               
G10  27384444.520 6 143906245.519 6       580.986 6        37.504               
G03  24435325.691 7 128408470.227 7       692.261 7        46.609               
> 2012 09 14 12 46 52.0000000  0  5                                             
G06  25388771.495 7 133418883.777 7      -590.509 7        44.032               
G16  25614214.379 7 134603564.867 7     -2819.116 7        45.437               
G19  25595172.290 7 134503537.882 7      2577.250 7        44.651               
G10  27384340.611 6 143905672.755 6       575.650 6        38.012               
G03  24435189.065 7 128407775.967 7       696.560 7        46.038               
> 2012 09 14 12 46 53.0000000  0  5                                             
G06  25388883.355 7 133419473.900 7      -591.055 7        44.033               
G16  25614747.626 7 134606389.800 7     -2825.654 7        45.510               
G19  25594683.948 7 134500963.835 7      2573.259 7        44.797               
G10  27384226.786 6 143905100.547 6       570.607 6        37.772               
G03  24435058.121 7 128407082.391 7       691.642 7        46.618               
> 2012 09 14 12 46 54.0000000  0  5                                             
G06  25388998.842 7 133420064.645 7      -589.308 7        44.840               
G16  25615287.593 7 134609214.940 7     -2827.401 7        45.617               
G19  25594192.782 7 134498390.164 7      2570.650 7        45.217               
G10  27384119.446 6 143904528.929 6       569.894 6        38.335               
G03  24434924.264 7 128406389.504 7       693.239 7        46.370               
> 2012 09 14 12 46 55.0000000  0  5                                             
G06  25389109.237 7 133420656.021 7      -589.478 7        44.471               
G16  25615819.714 7 134612040.287 7     -2825.074 7        45.949               
G19  25593702.581 7 134495816.866 7      2575.324 7        44.835               
G10  27384014.948 6 143903957.853 6       563.734 6        38.107               
G03  24434791.819 7 128405697.286 7       695.747 7        46.579               
> 2012 09 14 12 46 56.0000000  0  5                                             
G06  25389223.027 7 133421248.039 7      -591.421 7        44.584               
G16  25616360.109 7 134614865.837 7     -2827.236 7        45.373               
G19  25593211.683 7 134493243.965 7      2573.313 7        44.604               
G10  27383912.202 6 143903387.383 6       565.535 6        37.719               
G03  24434658.444 7 128405005.773 7       689.289 7        46.566               
> 2012 09 14 12 46 57.0000000  0  5                                             
G06  25389331.546 7 133421840.719 7      -594.241 7        44.179               
G16  25616897.860 7 134617691.611 7     -2826.158 7        45.242               
G19  25592724.592 7 134490671.442 7      2572.776 7        45.203               
G10  27383799.698 6 143902817.513 6       568.839 6        37.570               
G03  24434529.019 7 128404314.943 7       693.129 7        46.447               
> 2012 09 14 12 46 58.0000000  0  5                                             
G06  25389446.854 7 133422434.000 7      -598.110 7        44.882               
G16  25617433.841 7 134620517.587 7     -2822.319 7        45.495               
G19  25592236.839 7 134488099.323 7      2571.101 7        45.272               
G10  27383687.481 6 143902248.171 6       569.429 6        37.538               
G03  24434400.022 7 128403624.789 7       691.053 7        46.404               
> 2012 09 14 12 46 59.0000000  0  5                                             
G06  25389558.840 7 133423027.914 7      -593.803 7        44.363               
G16  25617970.448 7 134623343.762 7     -2826.442 7        45.018               
G19  25591744.190 7 134485527.578 7      2573.697 7        45.076               
G10  27383583.626 6 143901679.433 6       567.940 6        37.794               
G03  24434268.882 7 128402935.327 7       689.206 7        46.533               
> 2012 09 14 12 47 00.0000000  0  5                                             
G06  25389673.451 7 133423622.441 7      -592.025 7        44.280               
G16  25618513.577 7 134626170.154 7     -2824.484 7        45.248               
G19  25591258.903 7 134482956.247 7      2573.124 7        44.344               
G10  27383476.555 6 143901111.243 6       560.865 6        38.198               
G03  24434140.118 7 128402246.549 7       688.421 7        46.742               
> 2012 09 14 12 47 01.0000000  0  5                                             
G06  25389785.883 7 133424217.615 7      -592.141 7        43.987               
G16  25619047.646 7 134628996.737 7     -2828.013 7        45.047               
G19  25590764.771 7 134480385.289 7      2565.625 7        44.586               
G10  27383366.035 6 143900543.624 6       565.126 6        39.026               
G03  24434008.655 7 128401558.459 7       684.184 7        46.836               
> 2012 09 14 12 47 02.0000000  0  5                                             
G06  25389899.995 7 133424813.418 7      -596.588 7        44.387               
G16  25619588.559 7 134631823.545 7     -2831.039 7        45.595               
G19  25590277.018 7 134477814.703 7      2567.716 7        44.438               
G10  27383259.875 6 143899976.587 6       571.109 6        38.870               
G03  24433876.978 7 128400871.055 7       685.817 7        46.961               
> 2012 09 14 12 47 03.0000000  0  5                                             
G06  25390013.177 7 133425409.878 7      -594.790 7        44.471               
G16  25620126.828 7 134634650.547 7     -2825.085 7        45.019               
G19  25589785.906 7 134475244.537 7      2569.921 7        43.945               
G10  27383148.247 6 143899410.117 6       564.091 6        38.453               
G03  24433747.196 7 128400184.332 7       683.062 7        46.521               
> 2012 09 14 12 47 04.0000000  0  5                                             
G06  25390126.395 7 133426006.947 7      -594.666 7        44.385               
G16  25620664.096 7 134637477.761 7     -2826.475 7        45.356               
G19  25589298.903 7 134472674.746 7      2574.647 7        44.150               
G10  27383035.172 6 143898844.250 6       559.233 6        38.172               
G03  24433616.716 7 128399498.300 7       685.868 7        46.975               
> 2012 09 14 12 47 05.0000000  0  5                                             
G06  25390240.471 7 133426604.664 7      -601.383 7        44.366               
G16  25621205.241 7 134640305.177 7     -2826.104 7        44.745               
G19  25588812.973 7 134470105.352 7      2571.180 7        45.024               
G10  27382935.963 6 143898278.929 6       563.391 6        38.634               
G03  24433485.897 7 128398812.942 7       683.148 7        46.440               
> 2012 09 14 12 47 06.0000000  0  5                                             
G06  25390352.331 7 133427203.001 7      -600.497 7        43.828               
G16  25621739.453 7 134643132.802 7     -2826.239 7        44.782               
G19  25588319.038 7 134467536.340 7      2567.367 7        44.782               
G10  27382823.835 6 143897714.195 6       560.390 6        38.736               
G03  24433355.435 7 128398128.283 7       682.886 7        46.849               
> 2012 09 14 12 47 07.0000000  0  5                                             
G06  25390465.746 7 133427801.977 7      -596.520 7        44.662               
G16  25622279.902 7 134645960.623 7     -2828.114 7        45.013               
G19  25587837.021 7 134464967.710 7      2571.738 7        45.416               
G10  27382714.173 6 143897150.024 6       565.828 6        38.550               
G03  24433224.402 7 128397444.280 7       685.062 7        47.026               
> 2012 09 14 12 47 08.0000000  0  5                                             
G06  25390582.324 7 133428401.588 7      -598.513 7        44.056               
G16  25622815.740 7 134648788.671 7     -2827.463 7        44.993               
G19  25587347.356 7 134462399.490 7      2570.304 7        45.505               
G10  27382604.600 6 143896586.428 6       571.164 6        38.368               
G03  24433094.369 7 128396760.979 7       683.325 7        47.374               
> 2012 09 14 12 47 09.0000000  0  5                                             
G06  25390698.026 7 133429001.831 7      -602.111 7        44.507               
G16  25623357.797 7 134651616.916 7     -2831.771 7        45.015               
G19  25586856.565 7 134459831.647 7      2567.025 7        45.124               
G10  27382501.121 6 143896023.415 6       560.047 6        39.309               
G03  24432961.566 7 128396078.363 7       680.628 7        46.765               
> 2012 09 14 12 47 10.0000000  0  5                                             
G06  25390811.976 7 133429602.703 7      -602.714 7        44.470               
G16  25623893.564 7 134654445.371 7     -2826.193 7        44.836               
G19  25586370.331 7 134457264.200 7      2567.145 7        44.404               
G10  27382396.622 6 143895460.964 6       567.051 6        38.412               
G03  24432836.251 7 128395396.407 7       684.314 7        46.476               
> 2012 09 14 12 47 11.0000000  0  5                                             
G06  25390926.946 7 133430204.212 7      -604.665 7        44.089               
G16  25624430.832 7 134657274.039 7     -2826.300 7        44.373               
G19  25585877.522 7 134454697.136 7      2569.771 7        44.398               
G10  27382285.102 6 143894899.084 6       560.121 6        39.163               
G03  24432700.964 7 128394715.159 7       679.194 7        46.286               
> 2012 09 14 12 47 12.0000000  0  5                                             
G06  25391041.951 7 133430806.356 7      -601.050 7        44.284               
G16  25624971.048 7 134660102.905 7     -2829.050 7        44.779               
G19  25585389.501 7 134452130.463 7      2569.933 7        44.746               
G10  27382185.714 6 143894337.822 6       557.567 6        39.539               
G03  24432573.433 7 128394034.592 7       681.327 7        45.813               
> 2012 09 14 12 47 13.0000000  0  5                                             
G06  25391158.117 7 133431409.137 7      -602.586 7        43.949               
G16  25625512.498 7 134662931.980 7     -2826.897 7        44.830               
G19  25584900.408 7 134449564.180 7      2566.303 7        44.559               
G10  27382068.994 6 143893777.093 6       560.295 6        39.229               
G03  24432443.668 7 128393354.709 7       678.743 7        46.159               
> 2012 09 14 12 47 14.0000000  0  5                                             
G06  25391272.157 7 133432012.540 7      -602.132 7        44.211               
G16  25626046.120 7 134665761.252 7     -2825.486 7        45.524               
G19  25584415.335 7 134446998.299 7      2566.545 7        44.623               
G10  27381972.001 6 143893216.964 6       554.614 6        39.093               
G03  24432314.439 7 128392675.508 7       680.986 7        46.454               
> 2012 09 14 12 47 15.0000000  0  5                                             
G06  25391386.716 7 133432616.575 7      -604.578 7        44.363               
G16  25626587.677 7 134668590.739 7     -2828.478 7        44.991               
G19  25583924.187 7 134444432.818 7      2568.042 7        44.627               
G10  27381860.123 6 143892657.388 6       559.611 6        39.423               
G03  24432185.657 7 128391996.984 7       677.721 7        46.366               
> 2012 09 14 12 47 16.0000000  0  5                                             
G06  25391499.737 7 133433221.233 7      -603.788 7        44.272               
G16  25627126.714 7 134671420.423 7     -2832.847 7        45.623               
G19  25583435.863 7 134441867.726 7      2564.137 7        44.347               
G10  27381750.407 6 143892098.396 6       553.193 6        38.987               
G03  24432056.000 7 128391319.163 7       679.156 7        46.272               
> 2012 09 14 12 47 18.0000000  0  5                                             
G06  25391729.104 7 133434432.470 7      -601.917 7        44.036               
G16  25628202.840 7 134677080.413 7     -2830.193 7        45.658               
G19  25582462.376 7 134436738.722 7      2559.197 7        44.997               
G10  27381542.465 6 143890982.121 6       551.758 6        38.892               
G03  24431800.491 7 128389965.547 7       679.120 7        46.523               
> 2012 09 14 12 47 19.0000000  0  5                                             
G06  25391844.163 7 133435039.033 7      -605.076 7        44.219               
G16  25628741.662 7 134679910.704 7     -2832.482 7        45.574               
G19  25581972.711 7 134434174.796 7      2564.111 7        44.589               
G10  27381440.112 6 143890424.840 6       558.315 6        39.353               
G03  24431674.460 7 128389289.768 7       676.255 7        46.606               
> 2012 09 14 12 47 20.0000000  0  5                                             
G06  25391961.348 7 133435646.228 7      -604.847 7        43.965               
G16  25629277.536 7 134682741.202 7     -2826.676 7        45.373               
G19  25581486.995 7 134431611.248 7      2561.525 7        45.074               
G10  27381329.234 6 143889868.134 6       554.084 6        39.151               
G03  24431545.232 7 128388614.672 7       674.030 7        46.325               
> 2012 09 14 12 47 21.0000000  0  5                                             
G06  25392076.996 7 133436254.058 7      -611.951 7        43.521               
G16  25629817.610 7 134685571.916 7     -2827.709 7        45.783               
G19  25580995.133 7 134429048.134 7      2562.097 7        44.126               
G10  27381229.990 6 143889312.002 6       546.457 6        38.916               
G03  24431416.021 7 128387940.261 7       672.697 7        45.852               
> 2012 09 14 12 47 22.0000000  0  5                                             
G06  25392194.628 7 133436862.535 7      -607.932 7        44.063               
G16  25630356.808 7 134688402.824 7     -2827.265 7        45.652               
G19  25580509.917 7 134426485.400 7      2564.456 7        44.833               
G10  27381119.899 6 143888756.432 6       550.622 6        39.364               
G03  24431286.399 7 128387266.542 7       675.844 7        46.133               
> 2012 09 14 12 47 23.0000000  0  5                                             
G06  25392308.846 7 133437471.640 7      -615.179 7        44.289               
G16  25630893.754 7 134691233.944 7     -2831.730 7        45.365               
G19  25580020.092 7 134423923.048 7      2565.300 7        45.181               
G10  27381010.630 6 143888201.433 6       552.399 6        39.399               
G03  24431158.510 7 128386593.505 7       672.644 7        46.486               
> 2012 09 14 12 47 24.0000000  0  5                                             
G06  25392426.961 7 133438081.366 7      -610.005 7        44.334               
G16  25631431.504 7 134694065.262 7     -2828.107 7        45.483               
G19  25579532.642 7 134421361.068 7      2563.802 7        44.727               
G10  27380908.186 6 143887647.030 6       556.589 6        38.993               
G03  24431030.532 7 128385921.161 7       673.166 7        46.503               
> 2012 09 14 12 47 25.0000000  0  5                                             
G06  25392539.410 7 133438691.725 7      -611.991 7        44.436               
G16  25631974.347 7 134696896.785 7     -2827.845 7        45.644               
G19  25579046.480 7 134418799.499 7      2560.815 7        45.067               
G10  27380799.346 6 143887093.180 6       553.220 6        39.807               
G03  24430901.464 7 128385249.503 7       668.925 7        46.527               
> 2012 09 14 12 47 26.0000000  0  5                                             
G06  25392654.326 7 133439302.734 7      -608.789 7        44.199               
G16  25632511.115 7 134699728.513 7     -2831.477 7        45.945               
G19  25578559.478 7 134416238.321 7      2561.737 7        44.736               
G10  27380701.460 6 143886539.923 6       552.319 6        39.805               
G03  24430773.951 7 128384578.526 7       670.752 7        46.939               
> 2012 09 14 12 47 27.0000000  0  5                                             
G06  25392770.886 7 133439914.358 7      -610.054 7        44.285               
G16  25633051.403 7 134702560.454 7     -2832.175 7        45.863               
G19  25578075.299 7 134413677.549 7      2558.176 7        45.003               
G10  27380588.939 6 143885987.243 6       552.420 6        39.342               
G03  24430646.259 7 128383908.250 7       663.578 7        46.664               
> 2012 09 14 12 47 28.0000000  0  5                                             
G06  25392889.286 7 133440526.629 7      -616.798 7        44.363               
G16  25633590.493 7 134705392.602 7     -2834.415 7        45.509               
G19  25577587.224 7 134411117.158 7      2562.545 7        45.553               
G10  27380484.512 6 143885435.136 6       550.924 6        39.496               
G03  24430519.854 7 128383238.652 7       670.320 7        46.663               
> 2012 09 14 12 47 29.0000000  0  5                                             
G06  25393007.204 7 133441139.529 7      -613.319 7        44.588               
G16  25634128.351 7 134708224.953 7     -2831.684 7        46.091               
G19  25577099.400 7 134408557.164 7      2559.273 7        45.218               
G10  27380386.822 6 143884883.593 6       549.431 6        39.348               
G03  24430392.269 7 128382569.738 7       668.636 7        46.009               
> 2012 09 14 12 47 30.0000000  0  5                                             
G06  25393126.515 7 133441753.057 7      -613.589 7        44.999               
G16  25634668.996 7 134711057.487 7     -2833.449 7        45.986               
G19  25576610.807 7 134405997.562 7      2560.307 7        44.931               
G10  27380280.823 6 143884332.639 6       548.034 6        39.869               
G03  24430267.221 7 128381901.516 7       672.778 7        46.243               
> 2012 09 14 12 47 31.0000000  0  5                                             
G06  25393242.467 7 133442367.212 7      -615.295 7        44.722               
G16  25635208.444 7 134713890.248 7     -2832.332 7        46.409               
G19  25576120.016 7 134403438.342 7      2559.856 7        44.823               
G10  27380170.660 6 143883782.249 6       551.035 6        39.908               
G03  24430139.333 7 128381233.974 7       666.908 7        46.854               
> 2012 09 14 12 47 32.0000000  0  5                                             
G06  25393348.020 7 133442981.990 7      -613.538 7        45.189               
G16  25635736.777 7 134716723.204 7     -2835.013 7        46.285               
G19  25575625.563 7 134400879.529 7      2556.906 7        44.178               
G10  27380061.248 6 143883232.438 6       549.975 6        39.256               
G03  24430001.294 7 128380567.119 7       667.897 7        46.806               
> 2012 09 14 12 47 33.0000000  0  5                                             
G06  25393466.134 7 133443597.431 7      -614.899 7        45.276               
G16  25636272.580 7 134719556.375 7     -2832.922 7        46.599               
G19  25575139.257 7 134398321.089 7      2558.809 7        44.567               
G10  27379954.820 6 143882683.195 6       550.564 6        38.917               
G03  24429875.443 7 128379900.948 7       662.990 7        46.936               
> 2012 09 14 12 47 34.0000000  0  5                                             
G06  25393578.780 7 133444213.483 7      -617.968 7        44.948               
G16  25636815.655 7 134722389.742 7     -2837.123 7        46.349               
G19  25574651.219 7 134395763.062 7      2558.190 7        44.454               
G10  27379846.624 6 143882134.510 6       545.009 6        39.339               
G03  24429746.250 7 128379235.461 7       665.748 7        46.040               
> 2012 09 14 12 47 35.0000000  0  5                                             
G06  25393701.254 7 133444830.152 7      -616.782 7        44.892               
G16  25637354.460 7 134725223.324 7     -2835.695 7        46.230               
G19  25574167.790 7 134393205.425 7      2555.665 7        44.447               
G10  27379735.800 6 143881586.412 6       551.247 6        39.271               
G03  24429618.611 7 128378570.664 7       664.103 7        46.027               
> 2012 09 14 12 47 36.0000000  0  5                                             
G06  25393817.135 7 133445447.475 7      -618.024 7        45.099               
G16  25637893.104 7 134728057.099 7     -2833.432 7        45.938               
G19  25573681.324 7 134390648.181 7      2556.817 7        44.833               
G10  27379640.183 6 143881038.913 6       545.846 6        39.348               
G03  24429492.152 7 128377906.564 7       664.276 7        45.521               
> 2012 09 14 12 47 37.0000000  0  5                                             
G06  25393932.086 7 133446065.412 7      -617.583 7        45.152               
G16  25638431.480 7 134730891.082 7     -2832.513 7        46.075               
G19  25573196.412 7 134388091.324 7      2556.541 7        44.719               
G10  27379539.669 6 143880491.938 6       543.815 6        38.771               
G03  24429364.085 7 128377243.141 7       664.004 7        46.245               
> 2012 09 14 12 47 39.0000000  0  5                                             
G06  25394166.331 7 133447303.212 7      -624.002 7        44.239               
G16  25639507.820 7 134736559.654 7     -2833.698 7        45.715               
G19  25572221.299 7 134382978.806 7      2557.674 7        45.631               
G10  27379332.782 6 143879399.747 6       544.283 6        39.350               
G03  24429112.400 7 128375918.357 7       662.357 7        46.273               
> 2012 09 14 12 47 40.0000000  0  5                                             
G06  25394285.303 7 133447923.058 7      -619.956 7        44.222               
G16  25640047.375 7 134739394.251 7     -2838.030 7        45.858               
G19  25571735.959 7 134380423.140 7      2553.659 7        44.967               
G10  27379227.605 6 143878854.518 6       546.912 6        39.430               
G03  24428987.871 7 128375256.994 7       659.398 7        46.340               
> 2012 09 14 12 47 41.0000000  0  5                                             
G06  25394405.901 7 133448543.538 7      -622.913 7        43.981               
G16  25640585.126 7 134742229.050 7     -2835.731 7        45.884               
G19  25571250.493 7 134377867.872 7      2554.086 7        44.901               
G10  27379122.213 6 143878309.836 6       540.251 6        39.675               
G03  24428861.572 7 128374596.323 7       656.908 7        46.389               
> 2012 09 14 12 47 42.0000000  0  5                                             
G06  25394520.013 7 133449164.642 7      -621.301 7        44.403               
G16  25641120.803 7 134745064.054 7     -2833.784 7        45.202               
G19  25570762.866 7 134375312.991 7      2552.949 7        44.936               
G10  27379020.449 6 143877765.750 6       539.106 6        39.538               
G03  24428736.972 7 128373936.335 7       657.913 7        46.623               
> 2012 09 14 12 47 43.0000000  0  5                                             
G06  25394641.701 7 133449786.389 7      -621.388 7        44.300               
G16  25641660.787 7 134747899.267 7     -2833.512 7        45.753               
G19  25570270.931 7 134372758.508 7      2553.596 7        44.932               
G10  27378917.202 6 143877222.228 6       542.886 6        39.478               
G03  24428613.515 7 128373277.036 7       660.364 7        46.960               
> 2012 09 14 12 47 44.0000000  0  5                                             
G06  25394758.797 7 133450408.771 7      -624.060 7        44.122               
G16  25642203.863 7 134750734.681 7     -2837.582 7        45.558               
G19  25569789.361 7 134370204.417 7      2555.076 7        45.278               
G10  27378805.932 6 143876679.301 6       535.982 6        39.702               
G03  24428485.733 7 128372618.417 7       658.731 7        46.576               
> 2012 09 14 12 47 45.0000000  0  5                                             
G06  25394875.767 7 133451031.792 7      -620.591 7        44.158               
G16  25642741.595 7 134753570.292 7     -2840.404 7        45.324               
G19  25569296.891 7 134367650.717 7      2554.669 7        45.390               
G10  27378707.652 6 143876136.909 6       542.778 6        39.291               
G03  24428359.971 7 128371960.498 7       657.050 7        46.550               
> 2012 09 14 12 47 46.0000000  0  5                                             
G06  25394996.687 7 133451655.429 7      -623.932 7        43.805               
G16  25643280.704 7 134756406.103 7     -2834.851 7        44.992               
G19  25568810.442 7 134365097.413 7      2553.332 7        44.661               
G10  27378606.370 6 143875595.119 6       543.331 6        38.940               
G03  24428234.745 7 128371303.262 7       656.661 7        46.803               
> 2012 09 14 12 47 47.0000000  0  5                                             
G06  25395119.197 7 133452279.703 7      -627.501 7        43.990               
G16  25643821.885 7 134759242.113 7     -2834.192 7        45.153               
G19  25568325.495 7 134362544.489 7      2553.428 7        43.957               
G10  27378497.083 6 143875053.878 6       543.012 6        39.180               
G03  24428111.699 7 128370646.714 7       660.852 7        46.697               
> 2012 09 14 12 47 48.0000000  0  5                                             
G06  25395234.470 7 133452904.593 7      -623.385 7        43.591               
G16  25644356.812 7 134762078.337 7     -2835.847 7        45.354               
G19  25567841.906 7 134359991.969 7      2554.724 7        44.578               
G10  27378395.248 6 143874513.245 6       536.163 6        39.464               
G03  24427983.238 7 128369990.861 7       656.552 7        46.944               
> 2012 09 14 12 47 49.0000000  0  5                                             
G06  25395350.976 7 133453530.135 7      -625.726 7        43.627               
G16  25644897.171 7 134764914.751 7     -2835.872 7        44.567               
G19  25567355.332 7 134357439.831 7      2552.971 7        44.028               
G10  27378297.576 6 143873973.164 6       535.879 6        39.195               
G03  24427860.943 7 128369335.690 7       652.214 7        46.927               
> 2012 09 14 12 47 50.0000000  0  5                                             
G06  25395467.393 7 133454156.298 7      -625.103 7        43.204               
G16  25645437.316 7 134767751.370 7     -2837.640 7        45.125               
G19  25566870.885 7 134354888.110 7      2553.012 7        43.962               
G10  27378180.427 6 143873433.660 6       535.162 6        39.021               
G03  24427736.878 7 128368681.209 7       651.711 7        46.622               
> 2012 09 14 12 47 51.0000000  0  5                                             
G06  25395591.136 7 133454783.093 7      -625.733 7        43.850               
G16  25645981.088 7 134770588.194 7     -2839.163 7        44.856               
G19  25566386.045 7 134352336.766 7      2553.050 7        44.086               
G10  27378088.258 6 143872894.738 6       536.829 6        39.326               
G03  24427610.437 7 128368027.393 7       654.398 7        46.475               
> 2012 09 14 12 47 52.0000000  0  5                                             
G06  25395713.235 7 133455410.532 7      -630.536 7        44.094               
G16  25646518.034 7 134773425.208 7     -2838.302 7        44.610               
G19  25565901.544 7 134349785.829 7      2551.754 7        44.328               
G10  27377990.032 6 143872356.379 6       539.863 6        39.373               
G03  24427487.105 7 128367374.271 7       650.474 7        46.961               
> 2012 09 14 12 47 53.0000000  0  5                                             
G06  25395833.029 7 133456038.595 7      -628.193 7        44.404               
G16  25647058.680 7 134776262.441 7     -2838.738 7        44.705               
G19  25565417.955 7 134347235.289 7      2546.993 7        44.953               
G10  27377889.036 6 143871818.608 6       534.336 6        39.664               
G03  24427361.968 7 128366721.840 7       652.568 7        46.451               
> 2012 09 14 12 47 54.0000000  0  5                                             
G06  25395950.250 7 133456667.309 7      -624.825 7        44.717               
G16  25647600.969 7 134779099.878 7     -2839.642 7        44.387               
G19  25564935.205 7 134344685.153 7      2550.158 7        45.450               
G10  27377783.698 6 143871281.397 6       534.165 6        39.816               
G03  24427240.584 7 128366070.088 7       652.012 7        46.500               
> 2012 09 14 12 47 55.0000000  0  5                                             
G06  25396071.938 7 133457296.644 7      -626.157 7        44.335               
G16  25648138.648 7 134781937.507 7     -2841.690 7        44.351               
G19  25564450.812 7 134342135.380 7      2549.457 7        44.711               
G10  27377680.005 6 143870744.759 6       537.981 6        39.851               
G03  24427114.983 7 128365419.028 7       648.351 7        46.649               
> 2012 09 14 12 47 56.0000000  0  5                                             
G06  25396190.070 7 133457926.619 7      -632.050 7        44.591               
G16  25648681.723 7 134784775.344 7     -2836.964 7        44.696               
G19  25563964.489 7 134339586.015 7      2552.385 7        44.484               
G10  27377578.419 6 143870208.705 6       535.103 6        39.546               
G03  24426992.991 7 128364768.659 7       651.593 7        46.280               
> 2012 09 14 12 47 57.0000000  0  5                                             
G06  25396309.203 7 133458557.222 7      -632.100 7        44.924               
G16  25649222.386 7 134787613.370 7     -2841.351 7        44.494               
G19  25563479.559 7 134337037.068 7      2545.765 7        44.500               
G10  27377476.941 6 143869673.205 6       539.523 6        39.915               
G03  24426867.532 7 128364118.967 7       648.519 7        46.789               
> 2012 09 14 12 47 58.0000000  0  5                                             
G06  25396429.193 7 133459188.473 7      -629.740 7        44.591               
G16  25649761.459 7 134790451.616 7     -2837.649 7        44.223               
G19  25562995.505 7 134334488.504 7      2548.931 7        44.902               
G10  27377376.857 6 143869138.309 6       538.179 6        40.060               
G03  24426741.234 7 128363469.970 7       650.353 7        47.251               
> 2012 09 14 12 47 59.0000000  0  5                                             
G06  25396550.023 7 133459820.345 7      -628.323 7        44.544               
G16  25650302.551 7 134793290.052 7     -2836.502 7        44.112               
G19  25562509.539 7 134331940.329 7      2548.779 7        45.073               
G10  27377269.571 6 143868603.967 6       531.310 6        40.079               
G03  24426622.852 7 128362821.658 7       648.171 7        47.248               
> 2012 09 14 12 48 00.0000000  0  5                                             
G06  25396670.907 7 133460452.829 7      -632.391 7        44.272               
G16  25650841.337 7 134796128.694 7     -2841.668 7        44.574               
G19  25562021.750 7 134329392.548 7      2546.927 7        44.573               
G10  27377172.095 6 143868070.203 6       530.070 6        39.569               
G03  24426500.074 7 128362174.046 7       648.046 7        46.694               
> 2012 09 14 12 48 01.0000000  0  5                                             
G06  25396792.399 7 133461085.963 7      -636.701 7        44.323               
G16  25651382.340 7 134798967.548 7     -2843.663 7        44.086               
G19  25561535.945 7 134326845.173 7      2549.536 7        44.117               
G10  27377070.224 6 143867536.996 6       529.810 6        39.332               
G03  24426373.936 7 128361527.115 7       647.312 7        46.537               
> 2012 09 14 12 48 02.0000000  0  5                                             
G06  25396909.423 7 133461719.731 7      -632.405 7        44.425               
G16  25651917.428 7 134801806.582 7     -2837.233 7        44.008               
G19  25561055.215 7 134324298.186 7      2549.331 7        44.079               
G10  27376965.780 6 143867004.385 6       531.210 6        39.894               
G03  24426251.140 7 128360880.862 7       645.484 7        46.686               
> 2012 09 14 12 48 03.0000000  0  5                                             
G06  25397030.664 7 133462354.109 7      -635.655 7        44.161               
G16  25652456.697 7 134804645.826 7     -2840.534 7        43.853               
G19  25560567.319 7 134321751.595 7      2547.190 7        43.681               
G10  27376869.287 6 143866472.370 6       529.606 6        39.388               
G03  24426130.060 7 128360235.294 7       646.928 7        46.919               
> 2012 09 14 12 48 04.0000000  0  5                                             
G06  25397152.817 7 133462989.124 7      -637.540 7        44.128               
G16  25652996.860 7 134807485.284 7     -2839.648 7        44.076               
G19  25560080.245 7 134319205.412 7      2543.454 7        44.215               
G10  27376761.626 6 143865940.899 6       526.083 6        38.924               
G03  24426007.067 7 128359590.426 7       644.258 7        46.737               
> 2012 09 14 12 48 05.0000000  0  5                                             
G06  25397271.146 7 133463624.770 7      -636.912 7        44.026               
G16  25653535.879 7 134810324.930 7     -2835.215 7        43.911               
G19  25559598.729 7 134316659.627 7      2546.354 7        43.802               
G10  27376664.990 6 143865409.986 6       527.261 6        39.011               
G03  24425885.487 7 128358946.235 7       645.359 7        46.510               
> 2012 09 14 12 48 06.0000000  0  5                                             
G06  25397393.799 7 133464261.054 7      -633.411 7        44.153               
G16  25654078.079 7 134813164.783 7     -2837.018 7        43.977               
G19  25559113.460 7 134314114.235 7      2548.032 7        44.091               
G10  27376563.709 6 143864879.667 6       533.527 6        39.050               
G03  24425765.836 7 128358302.738 7       644.735 7        46.442               
> 2012 09 14 12 48 07.0000000  0  5                                             
G06  25397515.683 7 133464897.962 7      -640.854 7        44.336               
G16  25654617.598 7 134816004.839 7     -2840.922 7        43.929               
G19  25558628.655 7 134311569.237 7      2540.398 7        44.097               
G10  27376459.157 6 143864349.922 6       530.519 6        39.302               
G03  24425642.164 7 128357659.921 7       644.497 7        46.851               
> 2012 09 14 12 48 08.0000000  0  5                                             
G06  25397636.228 7 133465535.500 7      -635.678 7        45.059               
G16  25655156.814 7 134818845.094 7     -2838.025 7        43.995               
G19  25558141.671 7 134309024.637 7      2547.143 7        44.234               
G10  27376358.161 6 143863820.742 6       530.208 6        39.675               
G03  24425518.421 7 128357017.781 7       643.743 7        46.558               
> 2012 09 14 12 48 09.0000000  0  5                                             
G06  25397762.419 7 133466173.669 7      -638.699 7        45.204               
G16  25655697.334 7 134821685.539 7     -2839.108 7        44.142               
G19  25557657.939 7 134306480.452 7      2544.317 7        44.515               
G10  27376262.669 6 143863292.129 6       526.055 6        39.363               
G03  24425397.376 7 128356376.337 7       638.457 7        46.625               
> 2012 09 14 12 48 10.0000000  0  5                                             
G06  25397884.893 7 133466812.480 7      -638.819 7        45.441               
G16  25656238.032 7 134824526.183 7     -2840.186 7        43.949               
G19  25557175.689 7 134303936.641 7      2545.359 7        44.011               
G10  27376164.944 6 143862764.078 6       531.772 6        39.932               
G03  24425271.596 7 128355735.575 7       639.227 7        46.252               
> 2012 09 14 12 48 11.0000000  0  5                                             
G06  25398004.615 7 133467451.919 7      -642.182 7        44.949               
G16  25656780.893 7 134827367.050 7     -2841.651 7        44.289               
G19  25556691.689 7 134301393.253 7      2545.164 7        44.446               
G10  27376058.426 6 143862236.630 6       530.260 6        40.016               
G03  24425150.248 7 128355095.493 7       639.879 7        45.972               
> 2012 09 14 12 48 12.0000000  0  5                                             
G06  25398129.484 7 133468091.993 7      -641.449 7        45.100               
G16  25657322.932 7 134830208.088 7     -2839.068 7        43.947               
G19  25556207.081 7 134298850.248 7      2541.220 7        44.718               
G10  27375960.772 6 143861709.760 6       525.806 6        39.401               
G03  24425028.381 7 128354456.120 7       640.448 7        46.547               
> 2012 09 14 12 48 13.0000000  0  5                                             
G06  25398251.172 7 133468732.692 7      -639.498 7        45.143               
G16  25657862.023 7 134833049.348 7     -2843.951 7        44.382               
G19  25555718.810 7 134296307.639 7      2545.067 7        44.836               
G10  27375853.433 6 143861183.447 6       525.699 6        39.803               
G03  24424909.230 7 128353817.425 7       640.150 7        46.666               
> 2012 09 14 12 48 14.0000000  0  5                                             
G06  25398370.698 7 133469374.035 7      -640.587 7        45.331               
G16  25658404.973 7 134835890.800 7     -2839.982 7        44.691               
G19  25555239.724 7 134293765.430 7      2545.226 7        43.937               
G10  27375760.496 6 143860657.713 6       526.696 6        40.231               
G03  24424789.061 7 128353179.416 7       640.343 7        46.953               
> 2012 09 14 12 48 15.0000000  0  5                                             
G06  25398487.758 7 133470016.000 7      -643.032 7        44.901               
G16  25658943.831 7 134838732.460 7     -2841.303 7        44.404               
G19  25554755.151 7 134291223.613 7      2539.235 7        44.107               
G10  27375668.292 6 143860132.570 6       525.561 6        40.510               
G03  24424665.854 7 128352542.093 7       638.040 7        46.327               
> 2012 09 14 12 48 16.0000000  0  5                                             
G06  25398615.468 7 133470658.605 7      -644.028 7        45.247               
G16  25659484.101 7 134841574.305 7     -2841.519 7        44.199               
G19  25554271.240 7 134288682.199 7      2537.480 7        44.426               
G10  27375558.094 6 143859607.974 6       522.684 6        40.134               
G03  24424544.434 7 128351905.461 7       638.229 7        46.743               
> 2012 09 14 12 48 17.0000000  0  5                                             
G06  25398734.136 7 133471301.869 7      -645.275 7        44.429               
G16  25660028.678 7 134844416.349 7     -2843.457 7        44.750               
G19  25553787.830 7 134286141.190 7      2542.002 7        44.169               
G10  27375464.782 6 143859083.953 6       523.500 6        40.107               
G03  24424424.212 7 128351269.516 7       631.892 7        47.261               
> 2012 09 14 12 48 18.0000000  0  5                                             
G06  25398858.898 7 133471945.754 7      -641.824 7        44.966               
G16  25660568.179 7 134847258.590 7     -2840.746 7        44.736               
G19  25553306.474 7 134283600.570 7      2539.550 7        43.940               
G10  27375364.519 6 143858560.526 6       526.659 6        40.211               
G03  24424303.238 7 128350634.253 7       634.541 7        46.880               
> 2012 09 14 12 48 19.0000000  0  5                                             
G06  25398982.069 7 133472590.258 7      -643.702 7        45.134               
G16  25661105.715 7 134850101.045 7     -2844.494 7        44.706               
G19  25552821.705 7 134281060.349 7      2538.785 7        43.975               
G10  27375263.791 6 143858037.669 6       509.838 6        40.021               
G03  24424184.749 7 128349999.693 7       630.502 7        47.034               
> 2012 09 14 12 48 20.0000000  0  5                                             
G06  25399102.363 7 133473235.391 7      -644.451 7        44.870               
G16  25661650.327 7 134852943.695 7     -2844.351 7        44.873               
G19  25552339.188 7 134278520.534 7      2534.995 7        44.058               
G10  27375165.351 6 143857515.369 6       524.287 6        40.231               
G03  24424061.864 7 128349365.812 7       633.135 7        47.118               
> 2012 09 14 12 48 21.0000000  0  5                                             
G06  25399223.819 7 133473881.168 7      -646.834 7        45.243               
G16  25662190.633 7 134855786.532 7     -2841.431 7        44.862               
G19  25551856.492 7 134275981.129 7      2535.466 7        44.125               
G10  27375060.352 6 143856993.670 6       518.968 6        40.146               
G03  24423942.695 7 128348732.621 7       633.153 7        47.012               
> 2012 09 14 12 48 22.0000000  0  5                                             
G06  25399351.225 7 133474527.554 7      -646.705 7        45.149               
G16  25662733.940 7 134858629.588 7     -2842.216 7        45.160               
G19  25551371.223 7 134273442.104 7      2541.575 7        44.024               
G10  27374967.880 6 143856472.519 6       520.196 6        40.342               
G03  24423822.204 7 128348100.104 7       632.253 7        47.227               
> 2012 09 14 12 48 23.0000000  0  5                                             
G06  25399475.826 7 133475174.593 7      -646.378 7        44.917               
G16  25663275.300 7 134861472.831 7     -2842.728 7        45.117               
G19  25550886.043 7 134270903.499 7      2538.086 7        44.175               
G10  27374863.578 6 143855951.944 6       519.999 6        39.590               
G03  24423704.483 7 128347468.299 7       630.596 7        46.937               
> 2012 09 14 12 48 24.0000000  0  5                                             
G06  25399600.962 7 133475822.273 7      -649.836 7        44.580               
G16  25663816.768 7 134864316.285 7     -2844.765 7        45.100               
G19  25550409.119 7 134268365.290 7      2540.720 7        44.209               
G10  27374765.585 6 143855431.966 6       519.926 6        40.065               
G03  24423582.045 7 128346837.179 7       631.467 7        47.048               
> 2012 09 14 12 48 25.0000000  0  5                                             
G06  25399725.867 7 133476470.576 7      -647.243 7        44.600               
G16  25664355.965 7 134867159.944 7     -2844.794 7        45.190               
G19  25549927.031 7 134265827.472 7      2535.502 7        44.124               
G10  27374673.381 6 143854912.546 6       518.263 6        40.045               
G03  24423461.536 7 128346206.738 7       628.346 7        46.644               
> 2012 09 14 12 48 26.0000000  0  5                                             
G06  25399849.806 7 133477119.504 7      -649.082 7        44.753               
G16  25664898.379 7 134870003.791 7     -2845.899 7        45.270               
G19  25549441.190 7 134263290.052 7      2538.604 7        43.832               
G10  27374571.134 6 143854393.697 6       515.111 6        40.095               
G03  24423338.829 7 128345576.985 7       625.813 7        46.774               
> 2012 09 14 12 48 27.0000000  0  5                                             
G06  25399968.778 7 133477769.064 7      -651.323 7        45.064               
G16  25665443.456 7 134872847.828 7     -2842.149 7        45.081               
G19  25548958.315 7 134260753.045 7      2535.896 7        44.140               
G10  27374467.494 6 143853875.422 6       522.770 6        40.107               
G03  24423222.859 7 128344947.929 7       627.503 7        46.777               
> 2012 09 14 12 48 28.0000000  0  5                                             
G06  25400091.235 7 133478419.251 7      -645.178 7        44.719               
G16  25665980.528 7 134875692.082 7     -2843.872 7        45.413               
G19  25548477.263 7 134258216.418 7      2536.852 7        43.633               
G10  27374373.592 6 143853357.735 6       514.490 6        39.511               
G03  24423103.047 7 128344319.547 7       627.360 7        46.384               
> 2012 09 14 12 48 29.0000000  0  5                                             
G06  25400216.121 7 133479070.078 7      -656.146 7        44.651               
G16  25666527.409 7 134878536.526 7     -2845.301 7        45.600               
G19  25547994.067 7 134255680.203 7      2538.994 7        43.901               
G10  27374263.376 6 143852840.597 6       514.941 6        39.214               
G03  24422981.627 7 128343691.857 7       626.575 7        46.412               
> 2012 09 14 12 48 30.0000000  0  5                                             
G06  25400340.579 7 133479721.520 7      -651.439 7        44.647               
G16  25667064.123 7 134881381.175 7     -2843.508 7        45.075               
G19  25547512.711 7 134253144.382 7      2532.728 7        44.079               
G10  27374171.100 6 143852324.067 6       516.910 6        39.233               
G03  24422862.584 7 128343064.868 7       622.655 7        46.234               
> 2012 09 14 12 48 31.0000000  0  5                                             
G06  25400461.767 7 133480373.590 7      -650.094 7        44.547               
G16  25667606.769 7 134884226.022 7     -2844.792 7        45.150               
G19  25547030.194 7 134250608.963 7      2531.914 7        43.847               
G10  27374076.770 6 143851808.075 6       515.314 6        39.674               
G03  24422742.272 7 128342438.557 7       629.400 7        46.231               
> 2012 09 14 12 48 32.0000000  0  5                                             
G06  25400585.313 7 133481026.310 7      -653.015 7        44.427               
G16  25668148.630 7 134887071.061 7     -2845.647 7        45.595               
G19  25546549.625 7 134248073.944 7      2532.520 7        43.726               
G10  27373976.971 6 143851292.677 6       515.679 6        39.612               
G03  24422624.765 7 128341812.939 7       626.191 7        46.794               
> 2012 09 14 12 48 33.0000000  0  5                                             
G06  25400707.645 7 133481679.651 7      -651.469 7        44.363               
G16  25668690.383 7 134889916.315 7     -2846.230 7        45.228               
G19  25546065.839 7 134245539.333 7      2530.241 7        44.203               
G10  27373885.142 6 143850777.846 6       515.440 6        40.205               
G03  24422505.275 7 128341188.020 7       622.730 7        46.207               
> 2012 09 14 12 48 34.0000000  0  5                                             
G06  25400829.404 7 133482333.629 7      -650.445 7        44.809               
G16  25669230.688 7 134892761.747 7     -2845.819 7        44.971               
G19  25545581.374 7 134243005.112 7      2534.864 7        44.551               
G10  27373781.573 6 143850263.583 6       516.423 6        40.045               
G03  24422389.788 7 128340563.775 7       622.280 7        46.782               
> 2012 09 14 12 48 35.0000000  0  5                                             
G06  25400956.792 7 133482988.240 7      -652.864 7        44.723               
G16  25669771.852 7 134895607.396 7     -2844.905 7        45.257               
G19  25545100.590 7 134240471.314 7      2530.564 7        44.072               
G10  27373685.635 6 143849749.887 6       514.660 6        39.928               
G03  24422271.923 7 128339940.234 7       622.836 7        46.433               
> 2012 09 14 12 48 36.0000000  0  5                                             
G06  25401083.055 7 133483643.480 7      -658.034 7        44.716               
G16  25670312.836 7 134898453.251 7     -2848.326 7        45.137               
G19  25544616.518 7 134237937.902 7      2534.141 7        43.953               
G10  27373592.269 6 143849236.801 6       510.813 6        40.115               
G03  24422153.094 7 128339317.363 7       624.891 7        46.182               
> 2012 09 14 12 48 37.0000000  0  5                                             
G06  25401207.352 7 133484299.346 7      -654.246 7        44.497               
G16  25670851.498 7 134901299.271 7     -2847.632 7        45.013               
G19  25544133.465 7 134235404.888 7      2536.122 7        43.466               
G10  27373488.539 6 143848724.252 6       510.088 6        40.974               
G03  24422033.408 7 128338695.190 7       620.266 7        45.903               
> 2012 09 14 12 48 38.0000000  0  5                                             
G06  25401330.023 7 133484955.855 7      -654.744 7        44.285               
G16  25671391.714 7 134904145.497 7     -2847.997 7        45.040               
G19  25543648.875 7 134232872.275 7      2530.232 7        43.823               
G10  27373397.961 6 143848212.291 6       510.350 6        40.737               
G03  24421916.294 7 128338073.704 7       620.077 7        45.956               
> 2012 09 14 12 48 39.0000000  0  5                                             
G06  25401456.321 7 133485612.981 7      -658.199 7        44.794               
G16  25671930.841 7 134906991.944 7     -2845.086 7        44.964               
G19  25543168.126 7 134230340.067 7      2531.447 7        43.864               
G10  27373296.823 6 143847700.888 6       517.486 6        40.202               
G03  24421797.894 7 128337452.898 7       619.551 7        46.473               
> 2012 09 14 12 48 40.0000000  0  5                                             
G06  25401586.122 7 133486270.742 7      -660.035 7        44.259               
G16  25672476.007 7 134909838.578 7     -2847.209 7        44.861               
G19  25542686.217 7 134227808.247 7      2531.861 7        43.687               
G10  27373194.933 6 143847190.073 6       513.434 6        40.698               
G03  24421677.457 7 128336832.783 7       619.621 7        46.753               
> 2012 09 14 12 48 41.0000000  0  5                                             
G06  25401705.558 7 133486929.141 7      -660.013 7        44.060               
G16  25673019.046 7 134912685.414 7     -2845.239 7        44.576               
G19  25542209.686 7 134225276.848 7      2529.363 7        43.581               
G10  27373102.157 6 143846679.832 6       516.161 6        40.866               
G03  24421559.039 7 128336213.362 7       622.010 7        46.851               
> 2012 09 14 12 48 42.0000000  0  5                                             
G06  25401834.680 7 133487588.162 7      -660.966 7        44.294               
G16  25673559.656 7 134915532.439 7     -2851.670 7        44.978               
G19  25541726.186 7 134222745.830 7      2531.714 7        43.405               
G10  27373006.433 6 143846170.170 6       512.958 6        41.119               
G03  24421440.710 7 128335594.620 7       620.853 7        46.950               
> 2012 09 14 12 48 43.0000000  0  5                                             
G06  25401956.940 7 133488247.826 7      -662.061 7        44.078               
G16  25674100.444 7 134918379.668 7     -2847.621 7        44.766               
G19  25541243.168 7 134220215.227 7      2530.803 7        43.739               
G10  27372907.617 6 143845661.086 6       505.194 6        40.514               
G03  24421325.241 7 128334976.578 7       617.108 7        46.481               
> 2012 09 14 12 48 44.0000000  0  5                                             
G06  25402081.612 7 133488908.112 7      -660.668 7        44.496               
G16  25674643.358 7 134921227.079 7     -2843.130 7        44.574               
G19  25540760.490 7 134217685.017 7      2525.940 7        44.165               
G10  27372811.446 6 143845152.547 6       509.145 6        40.880               
G03  24421204.428 7 128334359.203 7       616.718 7        46.595               
> 2012 09 14 12 48 45.0000000  0  5                                             
G06  25402208.821 7 133489569.033 7      -654.882 7        44.851               
G16  25675184.933 7 134924074.710 7     -2847.714 7        44.836               
G19  25540280.081 7 134215155.215 7      2527.937 7        44.162               
G10  27372720.707 6 143844644.597 6       513.912 6        40.577               
G03  24421090.477 7 128333742.549 7       611.790 7        46.081               
> 2012 09 14 12 48 46.0000000  0  5                                             
G06  25402332.171 7 133490230.588 7      -662.936 7        45.024               
G16  25675727.508 7 134926922.531 7     -2850.287 7        45.285               
G19  25539798.922 7 134212625.820 7      2528.011 7        44.473               
G10  27372624.090 6 143844137.202 6       510.748 6        40.385               
G03  24420971.630 7 128333126.557 7       613.966 7        46.351               
> 2012 09 14 12 48 47.0000000  0  5                                             
G06  25402461.739 7 133490892.769 7      -660.624 7        44.407               
G16  25676266.098 7 134929770.543 7     -2849.401 7        44.769               
G19  25539316.655 7 134210096.810 7      2526.790 7        44.360               
G10  27372528.044 6 143843630.406 6       504.258 6        40.467               
G03  24420851.283 7 128332511.259 7       614.631 7        46.716               
> 2012 09 14 12 48 48.0000000  0  5                                             
G06  25402587.823 7 133491555.579 7      -663.165 7        44.452               
G16  25676810.067 7 134932618.771 7     -2846.440 7        44.865               
G19  25538837.086 7 134207568.203 7      2530.193 7        44.116               
G10  27372429.246 6 143843124.172 6       504.911 6        40.087               
G03  24420736.903 7 128331896.647 7       613.830 7        46.445               
> 2012 09 14 12 48 49.0000000  0  5                                             
G06  25402714.908 7 133492219.017 7      -663.710 7        44.276               
G16  25677353.910 7 134935467.181 7     -2848.655 7        45.361               
G19  25538355.105 7 134205040.019 7      2527.687 7        44.022               
G10  27372333.182 6 143842618.489 6       507.752 6        40.366               
G03  24420619.486 7 128331282.720 7       612.162 7        46.370               
> 2012 09 14 12 48 50.0000000  0  5                                             
G06  25402842.046 7 133492883.098 7      -661.976 7        44.469               
G16  25677895.270 7 134938315.787 7     -2845.920 7        44.867               
G19  25537872.713 7 134202512.220 7      2530.954 7        44.133               
G10  27372236.689 6 143842113.415 6       501.298 6        40.887               
G03  24420502.443 7 128330669.500 7       612.105 7        46.062               
> 2012 09 14 12 48 51.0000000  0  5                                             
G06  25402970.989 7 133493547.816 7      -666.946 7        45.188               
G16  25678439.203 7 134941164.592 7     -2846.098 7        44.382               
G19  25537393.502 7 134199984.850 7      2528.863 7        43.881               
G10  27372142.770 6 143841608.902 6       499.136 6        39.540               
G03  24420386.045 7 128330056.958 7       613.419 7        46.920               
> 2012 09 14 12 48 52.0000000  0  5                                             
G06  25403095.357 7 133494213.158 7      -668.170 7        44.766               
G16  25678984.066 7 134944013.599 7     -2848.486 7        44.797               
G19  25536911.163 7 134197457.861 7      2523.524 7        44.022               
G10  27372038.307 6 143841104.964 6       504.187 6        40.020               
G03  24420269.342 7 128329445.121 7       611.592 7        46.517               
> 2012 09 14 12 48 53.0000000  0  5                                             
G06  25403226.766 7 133494879.145 7      -664.467 7        44.313               
G16  25679528.177 7 134946862.796 7     -2853.171 7        45.382               
G19  25536432.845 7 134194931.287 7      2528.321 7        44.010               
G10  27371941.761 6 143840601.596 6       502.756 6        39.807               
G03  24420154.194 7 128328833.964 7       611.422 7        46.391               
> 2012 09 14 12 48 54.0000000  0  5                                             
G06  25403353.922 7 133495545.757 7      -667.941 7        44.501               
G16  25680068.197 7 134949712.195 7     -2850.588 7        44.782               
G19  25535952.829 7 134192405.112 7      2529.311 7        44.221               
G10  27371846.894 6 143840098.794 6       507.077 6        40.381               
G03  24420040.797 7 128328223.511 7       610.819 7        46.613               
> 2012 09 14 12 48 55.0000000  0  5                                             
G06  25403478.701 7 133496213.009 7      -669.242 7        44.681               
G16  25680613.828 7 134952561.794 7     -2848.608 7        45.501               
G19  25535472.903 7 134189879.335 7      2526.155 7        43.735               
G10  27371746.488 6 143839596.597 6       500.085 6        40.114               
G03  24419923.666 7 128327613.730 7       610.259 7        46.240               
> 2012 09 14 12 48 56.0000000  0  5                                             
G06  25403603.981 7 133496880.879 7      -669.886 7        44.714               
G16  25681155.170 7 134955411.578 7     -2850.755 7        45.746               
G19  25534996.694 7 134187353.953 7      2521.234 7        44.207               
G10  27371654.516 6 143839094.936 6       503.022 6        40.548               
G03  24419807.088 7 128327004.645 7       605.462 7        46.344               
> 2012 09 14 12 48 57.0000000  0  5                                             
G06  25403732.924 7 133497549.395 7      -667.678 7        44.687               
G16  25681697.316 7 134958261.571 7     -2852.988 7        45.726               
G19  25534510.513 7 134184828.984 7      2528.562 7        43.562               
G10  27371558.274 6 143838593.863 6       508.145 6        39.575               
G03  24419693.441 7 128326396.252 7       606.802 7        46.276               
> 2012 09 14 12 48 58.0000000  0  5                                             
G06  25403855.505 7 133498218.525 7      -668.203 7        44.847               
G16  25682237.979 7 134961111.747 7     -2850.882 7        45.426               
G19  25534034.643 7 134182304.418 7      2524.454 7        43.636               
G10  27371466.356 6 143838093.370 6       502.512 6        39.783               
G03  24419579.097 7 128325788.551 7       609.247 7        45.836               
> 2012 09 14 12 48 59.0000000  0  5                                             
G06  25403984.966 7 133498888.293 7      -672.268 7        44.821               
G16  25682784.646 7 134963962.129 7     -2851.718 7        45.878               
G19  25533554.253 7 134179780.245 7      2519.721 7        44.173               
G10  27371368.558 6 143837593.451 6       495.177 6        39.762               
G03  24419463.807 7 128325181.530 7       607.756 7        46.384               
> 2012 09 14 12 49 00.0000000  0  5                                             
G06  25404112.801 7 133499558.679 7      -670.446 7        44.603               
G16  25683324.898 7 134966812.704 7     -2850.314 7        45.522               
G19  25533071.199 7 134177256.472 7      2525.838 7        44.673               
G10  27371272.977 6 143837094.086 6       494.994 6        40.105               
G03  24419345.603 7 128324575.212 7       608.363 7        46.141               
> 2012 09 14 12 49 01.0000000  0  5                                             
G06  25404239.118 7 133500229.721 7      -674.368 7        45.028               
G16  25683864.292 7 134969663.492 7     -2852.845 7        45.678               
G19  25532591.613 7 134174733.129 7      2521.667 7        44.375               
G10  27371182.899 6 143836595.305 6       498.013 6        40.455               
G03  24419228.614 7 128323969.584 7       604.222 7        46.141               
> 2012 09 14 12 49 02.0000000  0  5                                             
G06  25404366.756 7 133500901.376 7      -674.434 7        44.609               
G16  25684408.422 7 134972514.453 7     -2851.700 7        45.916               
G19  25532105.647 7 134172210.168 7      2521.425 7        44.298               
G10  27371081.099 6 143836097.097 6       498.870 6        40.204               
G03  24419112.198 7 128323364.631 7       604.934 7        46.412               
> 2012 09 14 12 49 03.0000000  0  5                                             
G06  25404498.504 7 133501573.659 7      -674.213 7        44.373               
G16  25684949.532 7 134975365.611 7     -2851.914 7        45.270               
G19  25531628.651 7 134169687.620 7      2520.653 7        44.481               
G10  27370989.324 6 143835599.450 6       497.652 6        39.948               
G03  24418997.997 7 128322760.376 7       605.796 7        46.464               
> 2012 09 14 12 49 04.0000000  0  5                                             
G06  25404623.248 7 133502246.588 7      -672.406 7        44.016               
G16  25685492.393 7 134978216.963 7     -2848.620 7        45.875               
G19  25531150.226 7 134167165.469 7      2525.297 7        44.519               
G10  27370904.446 6 143835102.408 6       490.456 6        39.507               
G03  24418883.581 7 128322156.814 7       605.274 7        45.897               
> 2012 09 14 12 49 05.0000000  0  5                                             
G06  25404751.011 7 133502920.157 7      -677.660 7        43.766               
G16  25686034.896 7 134981068.518 7     -2852.656 7        45.541               
G19  25530674.713 7 134164643.714 7      2519.989 7        44.239               
G10  27370796.196 6 143834605.908 6       491.195 6        39.366               
G03  24418770.864 7 128321553.934 7       603.605 7        46.220               
> 2012 09 14 12 49 06.0000000  0  5                                             
G06  25404882.170 7 133503594.328 7      -667.469 7        44.055               
G16  25686577.132 7 134983920.254 7     -2851.483 7        45.171               
G19  25530195.091 7 134162122.365 7      2520.573 7        44.634               
G10  27370697.666 6 143834110.003 6       497.057 6        39.304               
G03  24418653.446 7 128320951.740 7       603.927 7        46.210               
> 2012 09 14 12 49 07.0000000  0  5                                             
G06  25405006.806 7 133504269.149 7      -676.648 7        44.185               
G16  25687119.903 7 134986772.205 7     -2851.300 7        45.039               
G19  25529716.129 7 134159601.417 7      2521.408 7        44.047               
G10  27370614.914 6 143833614.642 6       495.549 6        39.338               
G03  24418537.101 7 128320350.251 7       603.727 7        46.113               
> 2012 09 14 12 49 08.0000000  0  5                                             
G06  25405131.550 7 133504944.591 7      -673.296 7        44.437               
G16  25687660.548 7 134989624.350 7     -2851.290 7        45.625               
G19  25529238.294 7 134157080.875 7      2523.013 7        43.966               
G10  27370518.547 6 143833119.891 6       490.322 6        39.264               
G03  24418426.027 7 128319749.447 7       600.278 7        45.752               
> 2012 09 14 12 49 09.0000000  0  5                                             
G06  25405267.015 7 133505620.665 7      -674.791 7        44.298               
G16  25688205.750 7 134992476.676 7     -2850.272 7        45.219               
G19  25528756.759 7 134154560.735 7      2518.415 7        44.264               
G10  27370424.306 6 143832625.686 6       495.337 6        39.720               
G03  24418311.934 7 128319149.337 7       598.965 7        46.191               
> 2012 09 14 12 49 10.0000000  0  5                                             
G06  25405395.654 7 133506297.379 7      -680.130 7        43.840               
G16  25688747.289 7 134995329.199 7     -2850.099 7        45.526               
G19  25528277.816 7 134152041.014 7      2517.078 7        44.668               
G10  27370333.567 6 143832132.088 6       490.385 6        39.673               
G03  24418197.197 7 128318549.899 7       599.175 7        45.937               
> 2012 09 14 12 49 11.0000000  0  5                                             
G06  25405528.010 7 133506974.726 7      -677.406 7        43.783               
G16  25689291.347 7 134998181.919 7     -2852.773 7        45.524               
G19  25527799.552 7 134149521.685 7      2518.841 7        44.349               
G10  27370239.736 6 143831639.042 6       491.721 6        39.745               
G03  24418084.943 7 128317951.172 7       600.926 7        45.803               
> 2012 09 14 12 49 12.0000000  0  5                                             
G06  25405654.023 7 133507652.708 7      -677.593 7        44.017               
G16  25689832.618 7 135001034.842 7     -2852.153 7        45.095               
G19  25527316.695 7 134147002.770 7      2517.812 7        43.984               
G10  27370147.032 6 143831146.567 6       490.734 6        40.030               
G03  24417969.474 7 128317353.126 7       599.621 7        46.127               
> 2012 09 14 12 49 13.0000000  0  5                                             
G06  25405785.217 7 133508331.318 7      -678.800 7        44.016               
G16  25690376.962 7 135003887.953 7     -2851.790 7        44.875               
G19  25526837.859 7 134144484.230 7      2516.844 7        44.090               
G10  27370057.151 6 143830654.655 6       488.898 6        40.070               
G03  24417857.185 7 128316755.771 7       596.198 7        46.651               
> 2012 09 14 12 49 14.0000000  0  5                                             
G06  25405912.587 7 133509010.531 7      -678.804 7        44.010               
G16  25690918.214 7 135006741.263 7     -2855.395 7        45.281               
G19  25526355.199 7 134141966.099 7      2520.155 7        43.843               
G10  27369959.121 6 143830163.330 6       492.370 6        40.497               
G03  24417742.519 7 128316159.108 7       596.481 7        46.825               
> 2012 09 14 12 49 15.0000000  0  5                                             
G06  25406044.228 7 133509690.385 7      -676.921 7        44.500               
G16  25691463.184 7 135009594.759 7     -2852.788 7        45.614               
G19  25525875.040 7 134139448.375 7      2523.400 7        44.002               
G10  27369864.773 6 143829672.581 6       491.084 6        40.654               
G03  24417629.587 7 128315563.114 7       594.683 7        46.930               
> 2012 09 14 12 49 16.0000000  0  5                                             
G06  25406172.921 7 133510370.880 7      -682.796 7        44.738               
G16  25692005.384 7 135012448.454 7     -2856.543 7        45.697               
G19  25525398.384 7 134136931.065 7      2520.174 7        44.423               
G10  27369777.376 6 143829182.398 6       487.136 6        40.788               
G03  24417517.459 7 128314967.843 7       593.301 7        46.663               
> 2012 09 14 12 49 17.0000000  0  5                                             
G06  25406300.542 7 133511052.017 7      -681.679 7        44.948               
G16  25692546.529 7 135015302.343 7     -2856.277 7        45.222               
G19  25524919.976 7 134134414.145 7      2515.585 7        44.470               
G10  27369679.686 6 143828692.782 6       487.069 6        40.255               
G03  24417404.473 7 128314373.240 7       598.482 7        46.375               
> 2012 09 14 12 49 18.0000000  0  5                                             
G06  25406431.575 7 133511733.759 7      -680.181 7        44.272               
G16  25693091.230 7 135018156.410 7     -2853.565 7        45.407               
G19  25524433.063 7 134131897.652 7      2517.097 7        43.807               
G10  27369592.199 6 143828203.734 6       489.559 6        40.591               
G03  24417291.863 7 128313779.337 7       594.902 7        45.785               
> 2012 09 14 12 49 19.0000000  0  5                                             
G06  25406559.035 7 133512416.138 7      -682.851 7        44.938               
G16  25693634.127 7 135021010.695 7     -2852.835 7        45.494               
G19  25523959.802 7 134129381.550 7      2513.309 7        43.874               
G10  27369495.813 6 143827715.268 6       485.793 6        40.304               
G03  24417179.288 7 128313186.125 7       594.983 7        45.572               
> 2012 09 14 12 49 20.0000000  0  5                                             
G06  25406687.656 7 133513099.144 7      -683.284 7        44.758               
G16  25694178.132 7 135023865.164 7     -2853.101 7        45.199               
G19  25523476.588 7 134126865.873 7      2517.401 7        44.583               
G10  27369401.340 6 143827227.364 6       485.589 6        39.861               
G03  24417068.678 7 128312593.600 7       590.332 7        45.780               
> 2012 09 14 12 49 21.0000000  0  5                                             
G06  25406819.494 7 133513782.796 7      -682.344 7        44.865               
G16  25694722.815 7 135026719.835 7     -2855.068 7        45.369               
G19  25523000.325 7 134124350.589 7      2517.731 7        43.763               
G10  27369312.138 6 143826740.046 6       491.593 6        40.298               
G03  24416951.440 7 128312001.764 7       591.215 7        46.032               
> 2012 09 14 12 49 22.0000000  0  5                                             
G06  25406951.260 7 133514467.077 7      -686.545 7        44.717               
G16  25695260.834 7 135029574.706 7     -2856.477 7        45.652               
G19  25522521.185 7 134121835.724 7      2515.698 7        43.865               
G10  27369216.056 6 143826253.308 6       483.317 6        40.264               
G03  24416837.078 7 128311410.627 7       592.571 7        46.071               
> 2012 09 14 12 49 23.0000000  0  5                                             
G06  25407080.685 7 133515151.981 7      -683.494 7        44.452               
G16  25695807.554 7 135032429.760 7     -2856.688 7        45.084               
G19  25522040.562 7 134119321.263 7      2511.745 7        43.975               
G10  27369126.425 6 143825767.105 6       488.087 6        39.232               
G03  24416725.593 7 128310820.173 7       589.021 7        46.157               
> 2012 09 14 12 49 24.0000000  0  5                                             
G06  25407207.234 7 133515837.523 7      -683.863 7        44.277               
G16  25696350.094 7 135035285.030 7     -2854.805 7        45.076               
G19  25521561.368 7 134116807.202 7      2514.530 7        44.093               
G10  27369033.792 6 143825281.509 6       484.769 6        39.782               
G03  24416613.894 7 128310230.414 7       590.090 7        45.845               
> 2012 09 14 12 49 25.0000000  0  5                                             
G06  25407340.429 7 133516523.693 7      -684.474 7        44.811               
G16  25696893.205 7 135038140.479 7     -2859.526 7        45.346               
G19  25521085.427 7 134114293.547 7      2509.901 7        44.082               
G10  27368934.458 6 143824796.480 6       481.266 6        39.605               
G03  24416500.104 7 128309641.338 7       592.327 7        45.934               
> 2012 09 14 12 49 26.0000000  0  5                                             
G06  25407472.178 7 133517210.518 7      -687.861 7        45.132               
G16  25697436.351 7 135040996.118 7     -2856.236 7        44.948               
G19  25520605.483 7 134111780.304 7      2514.430 7        44.607               
G10  27368840.270 6 143824312.018 6       485.539 6        39.440               
G03  24416388.923 7 128309052.967 7       592.935 7        45.637               
> 2012 09 14 12 49 27.0000000  0  5                                             
G06  25407602.693 7 133517897.938 7      -686.512 7        44.388               
G16  25697979.123 7 135043851.965 7     -2853.953 7        44.609               
G19  25520130.256 7 134109267.472 7      2510.985 7        43.923               
G10  27368750.711 6 143823828.119 6       484.266 6        39.412               
G03  24416276.759 7 128308465.264 7       587.695 7        46.089               
> 2012 09 14 12 49 28.0000000  0  5                                             
G06  25407736.210 7 133518585.996 7      -686.666 7        44.611               
G16  25698522.806 7 135046707.997 7     -2858.848 7        44.820               
G19  25519651.706 7 134106755.038 7      2512.859 7        44.392               
G10  27368655.969 6 143823344.802 6       476.339 6        40.445               
G03  24416163.845 7 128307878.253 7       588.201 7        46.011               
> 2012 09 14 12 49 29.0000000  0  5                                             
G06  25407865.028 7 133519274.682 7      -686.775 7        44.415               
G16  25699066.435 7 135049564.210 7     -2853.316 7        45.009               
G19  25519177.266 7 134104243.033 7      2511.430 7        44.698               
G10  27368565.463 6 143822862.050 6       480.361 6        40.240               
G03  24416053.253 7 128307291.946 7       585.839 7        46.249               
> 2012 09 14 12 49 30.0000000  0  5                                             
G06  25407995.490 7 133519964.007 7      -691.184 7        44.365               
G16  25699610.243 7 135052420.632 7     -2851.718 7        44.863               
G19  25518699.394 7 134101731.416 7      2515.017 7        44.473               
G10  27368474.581 6 143822379.895 6       477.617 6        39.779               
G03  24415941.590 7 128306706.333 7       587.586 7        46.137               
> 2012 09 14 12 49 31.0000000  0  5                                             
G06  25408127.685 7 133520653.951 7      -694.623 7        44.360               
G16  25700154.462 7 135055277.251 7     -2860.033 7        45.014               
G19  25518222.542 7 134099220.207 7      2510.492 7        44.932               
G10  27368374.085 6 143821898.286 6       479.843 6        39.372               
G03  24415833.643 7 128306121.405 7       579.977 7        46.268               
> 2012 09 14 12 49 32.0000000  0  5                                             
G06  25408259.630 7 133521344.532 7      -691.304 7        44.256               
G16  25700699.968 7 135058134.050 7     -2856.443 7        44.908               
G19  25517746.475 7 134096709.412 7      2510.460 7        44.947               
G10  27368291.673 6 143821417.274 6       482.715 6        39.404               
G03  24415722.051 7 128305537.163 7       580.399 7        46.163               
> 2012 09 14 12 49 33.0000000  0  5                                             
G06  25408392.986 7 133522035.753 7      -692.016 7        44.505               
G16  25701244.240 7 135060991.044 7     -2856.918 7        45.259               
G19  25517270.337 7 134094199.029 7      2510.848 7        45.083               
G10  27368200.148 6 143820936.814 6       481.147 6        39.696               
G03  24415610.656 7 128304953.622 7       581.667 7        45.586               
> 2012 09 14 12 49 34.0000000  0  5                                             
G06  25408522.858 7 133522727.609 7      -689.215 7        44.316               
G16  25701787.119 7 135063848.219 7     -2857.292 7        44.626               
G19  25516791.108 7 134091689.044 7      2505.629 7        44.916               
G10  27368108.051 6 143820456.945 6       478.009 6        40.554               
G03  24415501.672 7 128304370.767 7       584.744 7        45.954               
> 2012 09 14 12 49 35.0000000  0  5                                             
G06  25408656.411 7 133523420.084 7      -693.442 7        44.142               
G16  25702329.140 7 135066705.602 7     -2855.838 7        45.363               
G19  25516311.896 7 134089179.476 7      2506.841 7        44.607               
G10  27368018.260 6 143819977.648 6       478.425 6        40.478               
G03  24415389.205 7 128303788.607 7       580.974 7        46.164               
> 2012 09 14 12 49 36.0000000  0  5                                             
G06  25408785.783 7 133524113.197 7      -697.644 7        44.020               
G16  25702874.592 7 135069563.177 7     -2855.613 7        45.020               
G19  25515833.203 7 134086670.294 7      2504.286 7        44.315               
G10  27367928.629 6 143819498.915 6       484.127 6        40.164               
G03  24415277.863 7 128303207.129 7       583.280 7        46.298               
> 2012 09 14 12 49 37.0000000  0  5                                             
G06  25408916.316 7 133524806.928 7      -695.064 7        44.776               
G16  25703420.401 7 135072420.951 7     -2854.543 7        45.125               
G19  25515352.133 7 134084161.519 7      2513.953 7        44.926               
G10  27367835.549 6 143819020.757 6       477.993 6        40.480               
G03  24415166.181 7 128302626.358 7       576.817 7        46.253               
> 2012 09 14 12 49 38.0000000  0  5                                             
G06  25409047.940 7 133525501.303 7      -695.899 7        44.696               
G16  25703962.762 7 135075278.915 7     -2857.082 7        45.487               
G19  25514879.087 7 134081653.185 7      2506.551 7        44.111               
G10  27367747.490 6 143818543.176 6       477.428 6        39.743               
G03  24415057.002 7 128302046.263 7       581.229 7        46.417               
> 2012 09 14 12 49 39.0000000  0  5                                             
G06  25409180.331 7 133526196.312 7      -696.350 7        43.845               
G16  25704508.410 7 135078137.070 7     -2856.706 7        45.385               
G19  25514400.536 7 134079145.242 7      2505.944 7        44.553               
G10  27367658.092 6 143818066.159 6       476.801 6        39.772               
G03  24414949.251 7 128301466.879 7       580.640 7        46.365               
> 2012 09 14 12 49 40.0000000  0  5                                             
G06  25409310.239 7 133526891.945 7      -693.671 7        43.848               
G16  25705053.076 7 135080995.407 7     -2856.580 7        45.778               
G19  25513926.668 7 134076637.707 7      2507.204 7        44.985               
G10  27367564.994 6 143817589.734 6       479.616 6        40.731               
G03  24414843.771 7 128300888.181 7       579.200 7        46.507               
> 2012 09 14 12 49 41.0000000  0  5                                             
G06  25409443.274 7 133527588.210 7      -700.138 7        43.978               
G16  25705594.525 7 135083853.957 7     -2860.383 7        46.176               
G19  25513451.030 7 134074130.579 7      2504.817 7        44.784               
G10  27367474.648 6 143817113.873 6       479.624 6        40.939               
G03  24414731.339 7 128300310.182 7       577.269 7        46.808               
> 2012 09 14 12 49 42.0000000  0  5                                             
G06  25409574.272 7 133528285.106 7      -701.570 7        44.732               
G16  25706140.406 7 135086712.685 7     -2858.082 7        45.785               
G19  25512968.763 7 134071623.863 7      2504.469 7        45.095               
G10  27367383.105 6 143816638.591 6       472.650 6        40.764               
G03  24414621.927 7 128299732.856 7       574.540 7        46.375               
> 2012 09 14 12 49 43.0000000  0  5                                             
G06  25409708.772 7 133528982.638 7      -699.507 7        44.420               
G16  25706684.714 7 135089571.588 7     -2856.527 7        45.697               
G19  25512494.305 7 134069117.545 7      2506.117 7        45.302               
G10  27367289.025 6 143816163.871 6       472.519 6        40.635               
G03  24414510.085 7 128299156.227 7       577.337 7        46.797               
> 2012 09 14 12 49 44.0000000  0  5                                             
G06  25409843.326 7 133529680.794 7      -700.622 7        44.434               
G16  25707226.861 7 135092430.699 7     -2862.082 7        45.703               
G19  25512020.454 7 134066611.645 7      2507.537 7        44.568               
G10  27367198.679 6 143815689.728 6       474.619 6        40.202               
G03  24414399.422 7 128298580.294 7       575.282 7        46.809               
> 2012 09 14 12 49 45.0000000  0  5                                             
G06  25409974.734 7 133530379.592 7      -699.810 7        44.196               
G16  25707770.651 7 135095289.986 7     -2856.635 7        45.285               
G19  25511543.154 7 134064106.154 7      2500.284 7        44.764               
G10  27367105.939 6 143815216.159 6       467.433 6        39.987               
G03  24414289.098 7 128298005.032 7       573.782 7        46.608               
> 2012 09 14 12 49 46.0000000  0  5                                             
G06  25410110.450 7 133531079.007 7      -700.295 7        44.185               
G16  25708316.246 7 135098149.480 7     -2858.053 7        45.788               
G19  25511067.320 7 134061601.070 7      2504.800 7        45.806               
G10  27367023.277 6 143814743.148 6       475.205 6        40.078               
G03  24414181.062 7 128297430.473 7       574.097 7        46.873               
> 2012 09 14 12 49 47.0000000  0  5                                             
G06  25410242.770 7 133531779.067 7      -701.721 7        43.850               
G16  25708861.001 7 135101009.151 7     -2859.843 7        45.531               
G19  25510591.307 7 134059096.404 7      2504.318 7        45.423               
G10  27366935.933 6 143814270.728 6       471.447 6        39.838               
G03  24414072.079 7 128296856.607 7       573.406 7        45.919               
> 2012 09 14 12 49 49.0000000  0  5                                             
G06  25410510.090 7 133533181.051 7      -702.529 7        44.315               
G16  25709948.152 7 135106729.090 7     -2859.710 7        45.745               
G19  25509637.548 7 134054088.287 7      2507.243 7        45.350               
G10  27366750.667 6 143813327.590 6       478.284 6        39.772               
G03  24413852.469 7 128295710.945 7       570.750 7        46.355               
> 2012 09 14 12 49 50.0000000  0  5                                             
G06  25410647.503 7 133533882.990 7      -699.415 7        44.954               
G16  25710492.550 7 135109589.338 7     -2863.720 7        45.939               
G19  25509161.303 7 134051584.855 7      2503.490 7        45.046               
G10  27366662.698 6 143812856.893 6       479.895 6        40.322               
G03  24413748.346 7 128295139.150 7       574.421 7        47.030               
> 2012 09 14 12 49 51.0000000  0  5                                             
G06  25410782.414 7 133534585.564 7      -699.944 7        44.700               
G16  25711034.982 7 135112449.778 7     -2860.319 7        45.791               
G19  25508683.718 7 134049081.809 7      2503.294 7        44.572               
G10  27366574.264 6 143812386.761 6       471.719 6        40.083               
G03  24413637.147 7 128294568.052 7       569.707 7        46.413               
> 2012 09 14 12 49 52.0000000  0  5                                             
G06  25410915.038 7 133535288.772 7      -704.092 7        44.521               
G16  25711579.969 7 135115310.415 7     -2860.015 7        45.652               
G19  25508206.132 7 134046579.203 7      2501.627 7        43.720               
G10  27366486.991 6 143811917.207 6       465.071 6        40.446               
G03  24413528.593 7 128293997.642 7       569.229 7        46.086               
> 2012 09 14 12 49 53.0000000  0  5                                             
G06  25411049.342 7 133535992.602 7      -704.067 7        44.609               
G16  25712120.328 7 135118171.247 7     -2859.505 7        45.670               
G19  25507726.170 7 134044076.974 7      2499.591 7        44.290               
G10  27366399.951 6 143811448.208 6       475.054 6        40.801               
G03  24413421.557 7 128293427.918 7       566.799 7        46.135               
> 2012 09 14 12 49 54.0000000  0  5                                             
G06  25411177.338 7 133536697.047 7      -706.277 7        44.329               
G16  25712668.014 7 135121032.269 7     -2863.766 7        45.816               
G19  25507253.731 7 134041575.164 7      2502.851 7        44.587               
G10  27366312.054 6 143810979.774 6       468.253 6        41.085               
G03  24413314.808 7 128292858.886 7       568.825 7        47.232               
> 2012 09 14 12 49 55.0000000  0  5                                             
G06  25411312.177 7 133537402.134 7      -706.319 7        44.855               
G16  25713210.374 7 135123893.480 7     -2858.688 7        45.824               
G19  25506774.001 7 134039073.767 7      2501.466 7        44.392               
G10  27366225.157 6 143810511.943 6       469.185 6        41.436               
G03  24413206.629 7 128292290.552 7       569.725 7        47.132               
> 2012 09 14 12 49 56.0000000  0  5                                             
G06  25411448.464 7 133538107.845 7      -701.005 7        44.599               
G16  25713755.237 7 135126754.879 7     -2865.260 7        45.966               
G19  25506300.204 7 134036572.780 7      2502.812 7        44.760               
G10  27366131.666 6 143810044.682 6       466.599 6        41.114               
G03  24413101.541 7 128291722.915 7       566.241 7        46.980               
> 2012 09 14 12 49 57.0000000  0  5                                             
G06  25411586.359 7 133538814.183 7      -707.367 7        44.509               
G16  25714303.548 7 135129616.467 7     -2860.829 7        46.005               
G19  25505822.869 7 134034072.209 7      2500.173 7        44.938               
G10  27366045.484 6 143809577.965 6       468.734 6        41.672               
G03  24412991.914 7 128291155.954 7       568.015 7        46.804               
> 2012 09 14 12 49 58.0000000  0  5                                             
G06  25411721.467 7 133539521.170 7      -704.129 7        44.412               
G16  25714842.424 7 135132478.256 7     -2862.300 7        45.684               
G19  25505349.215 7 134031572.051 7      2500.318 7        44.883               
G10  27365956.067 6 143809111.838 6       469.418 6        40.851               
G03  24412881.341 7 128290589.695 7       562.151 7        46.734               
> 2012 09 14 12 49 59.0000000  0  5                                             
G06  25411859.059 7 133540228.794 7      -709.240 7        44.291               
G16  25715389.859 7 135135340.223 7     -2859.630 7        45.665               
G19  25504875.972 7 134029072.301 7      2499.812 7        44.940               
G10  27365863.488 6 143808646.295 6       459.627 6        40.374               
G03  24412774.895 7 128290024.125 7       566.345 7        46.662               
> 2012 09 14 12 50 00.0000000  0  5                                             
G06  25411992.844 7 133540937.033 7      -710.351 7        43.988               
G16  25715935.740 7 135138202.388 7     -2861.534 7        45.674               
G19  25504400.852 7 134026572.965 7      2500.512 7        45.320               
G10  27365770.426 6 143808181.310 6       460.526 6        40.917               
G03  24412664.965 7 128289459.246 7       562.910 7        47.093               
> 2012 09 14 12 50 01.0000000  0  5                                             
G06  25412124.557 7 133541645.903 7      -709.335 7        43.888               
G16  25716481.567 7 135141064.737 7     -2863.903 7        46.452               
G19  25503925.840 7 134024074.033 7      2496.190 7        45.888               
G10  27365685.584 6 143807716.897 6       464.049 6        40.953               
G03  24412558.162 7 128288895.049 7       560.687 7        46.726               
> 2012 09 14 12 50 02.0000000  0  5                                             
G06  25412259.718 7 133542355.375 7      -710.655 7        44.274               
G16  25717028.055 7 135143927.268 7     -2861.385 7        46.013               
G19  25503454.169 7 134021575.507 7      2496.846 7        45.478               
G10  27365600.581 6 143807253.070 6       458.770 6        40.680               
G03  24412451.108 7 128288331.552 7       559.780 7        46.984               
> 2012 09 14 12 50 03.0000000  0  5                                             
G06  25412392.217 7 133543065.511 7      -713.490 7        44.280               
G16  25717572.864 7 135146790.005 7     -2863.658 7        46.015               
G19  25502974.243 7 134019077.397 7      2498.709 7        45.500               
G10  27365505.160 6 143806789.785 6       460.817 6        40.787               
G03  24412343.608 7 128287768.740 7       565.359 7        46.827               
> 2012 09 14 12 50 04.0000000  0  5                                             
G06  25412528.682 7 133543776.259 7      -710.191 7        44.173               
G16  25718118.405 7 135149652.922 7     -2862.067 7        45.791               
G19  25502496.962 7 134016579.696 7      2499.632 7        45.628               
G10  27365418.567 6 143806327.115 6       461.731 6        40.966               
G03  24412237.592 7 128287206.635 7       560.521 7        46.817               
> 2012 09 14 12 50 05.0000000  0  5                                             
G06  25412661.717 7 133544487.653 7      -709.481 7        44.454               
G16  25718663.589 7 135152516.043 7     -2863.207 7        46.014               
G19  25502020.413 7 134014082.405 7      2497.836 7        45.172               
G10  27365333.439 6 143805865.002 6       462.750 6        40.690               
G03  24412129.984 7 128286645.220 7       562.634 7        47.258               
> 2012 09 14 12 50 06.0000000  0  5                                             
G06  25412798.505 7 133545199.665 7      -711.927 7        44.544               
G16  25719208.612 7 135155379.335 7     -2863.975 7        46.088               
G19  25501545.114 7 134011585.518 7      2495.340 7        45.676               
G10  27365244.040 6 143805403.484 6       452.870 6        40.514               
G03  24412021.376 7 128286084.494 7       559.698 7        46.958               
> 2012 09 14 12 50 07.0000000  0  5                                             
G06  25412933.344 7 133545912.311 7      -711.714 7        44.760               
G16  25719753.296 7 135158242.834 7     -2861.661 7        45.814               
G19  25501070.263 7 134009089.040 7      2498.025 7        45.050               
G10  27365155.285 6 143804942.513 6       457.629 6        40.383               
G03  24411917.879 7 128285524.461 7       560.576 7        45.895               
> 2012 09 14 12 50 08.0000000  0  5                                             
G06  25413067.183 7 133546625.598 7      -713.832 7        43.982               
G16  25720294.566 7 135161106.516 7     -2865.092 7        45.493               
G19  25500594.643 7 134006592.963 7      2494.349 7        44.487               
G10  27365070.246 6 143804482.113 6       460.478 6        40.080               
G03  24411811.594 7 128284965.126 7       558.974 7        46.422               
> 2012 09 14 12 50 09.0000000  0  5                                             
G06  25413205.221 7 133547339.510 7      -712.685 7        44.080               
G16  25720845.540 7 135163970.403 7     -2866.282 7        45.467               
G19  25500121.293 7 134004097.316 7      2492.841 7        45.060               
G10  27364976.237 6 143804022.282 6       456.954 6        40.195               
G03  24411704.737 7 128284406.466 7       557.708 7        46.764               
> 2012 09 14 12 50 10.0000000  0  5                                             
G06  25413342.759 7 133548054.045 7      -714.514 7        44.647               
G16  25721388.937 7 135166834.459 7     -2863.453 7        45.635               
G19  25499643.386 7 134001602.080 7      2496.438 7        44.940               
G10  27364890.644 6 143803563.027 6       459.419 6        39.934               
G03  24411596.415 7 128283848.525 7       557.870 7        46.491               
> 2012 09 14 12 50 11.0000000  0  5                                             
G06  25413478.993 7 133548769.208 7      -712.278 7        44.805               
G16  25721935.604 7 135169698.713 7     -2864.850 7        45.913               
G19  25499172.948 7 133999107.239 7      2491.415 7        45.297               
G10  27364806.642 6 143803104.374 6       452.083 6        39.959               
G03  24411489.022 7 128283291.267 7       556.689 7        46.797               
> 2012 09 14 12 50 12.0000000  0  5                                             
G06  25413613.600 7 133549485.006 7      -716.834 7        44.612               
G16  25722478.054 7 135172563.157 7     -2864.606 7        45.496               
G19  25498700.223 7 133996612.824 7      2493.974 7        45.434               
G10  27364721.443 6 143802646.264 6       465.809 6        39.358               
G03  24411380.915 7 128282734.696 7       557.015 7        47.133               
> 2012 09 14 12 50 13.0000000  0  5                                             
G06  25413750.012 7 133550201.434 7      -714.719 7        44.361               
G16  25723020.843 7 135175427.777 7     -2864.349 7        45.241               
G19  25498226.533 7 133994118.817 7      2493.742 7        45.308               
G10  27364631.025 6 143802188.740 6       463.183 6        39.823               
G03  24411276.059 7 128282178.824 7       557.500 7        46.277               
> 2012 09 14 12 50 14.0000000  0  5                                             
G06  25413886.174 7 133550918.497 7      -721.189 7        44.706               
G16  25723564.866 7 135178292.601 7     -2866.750 7        44.867               
G19  25497749.305 7 133991625.226 7      2488.263 7        45.275               
G10  27364537.660 6 143801731.788 6       453.362 6        39.753               
G03  24411170.793 7 128281623.637 7       559.521 7        46.804               
> 2012 09 14 12 50 15.0000000  0  5                                             
G06  25414021.782 7 133551636.172 7      -719.651 7        45.020               
G16  25724109.120 7 135181157.616 7     -2865.244 7        45.128               
G19  25497272.631 7 133989132.051 7      2495.494 7        44.837               
G10  27364455.480 6 143801275.394 6       460.856 6        39.492               
G03  24411068.725 7 128281069.142 7       552.785 7        46.657               
> 2012 09 14 12 50 16.0000000  0  5                                             
G06  25414160.088 7 133552354.495 7      -720.306 7        44.171               
G16  25724658.235 7 135184022.823 7     -2868.186 7        45.484               
G19  25496801.496 7 133986639.282 7      2495.187 7        45.121               
G10  27364364.259 6 143800819.610 6       453.055 6        39.329               
G03  24410961.582 7 128280515.349 7       551.561 7        47.086               
> 2012 09 14 12 50 17.0000000  0  5                                             
G06  25414295.804 7 133553073.450 7      -727.064 7        43.832               
G16  25725199.024 7 135186888.212 7     -2866.048 7        45.156               
G19  25496328.521 7 133984146.942 7      2490.968 7        45.339               
G10  27364282.579 6 143800364.365 6       454.230 6        39.857               
G03  24410855.762 7 128279962.237 7       552.742 7        46.772               
> 2012 09 14 12 50 18.0000000  0  5                                             
G06  25414433.949 7 133553793.010 7      -723.258 7        43.893               
G16  25725744.904 7 135189753.786 7     -2869.153 7        45.164               
G19  25495852.401 7 133981654.989 7      2491.678 7        45.033               
G10  27364202.830 6 143799909.719 6       456.774 6        40.321               
G03  24410751.371 7 128279409.831 7       550.775 7        46.754               
> 2012 09 14 12 50 19.0000000  0  5                                             
G06  25414570.361 7 133554513.222 7      -721.970 7        43.730               
G16  25726290.642 7 135192619.550 7     -2865.841 7        45.170               
G19  25495380.552 7 133979163.450 7      2489.507 7        45.131               
G10  27364115.790 6 143799455.618 6       454.602 6        39.985               
G03  24410647.374 7 128278858.109 7       551.560 7        46.389               
> 2012 09 14 12 50 20.0000000  0  5                                             
G06  25414700.483 7 133555234.058 7      -723.393 7        44.017               
G16  25726835.719 7 135195485.509 7     -2862.880 7        44.997               
G19  25494903.913 7 133976672.334 7      2488.278 7        45.002               
G10  27364026.552 6 143799002.111 6       455.825 6        39.934               
G03  24410540.731 7 128278307.079 7       545.558 7        46.490               
> 2012 09 14 12 50 21.0000000  0  5                                             
G06  25414841.005 7 133555955.531 7      -719.301 7        43.668               
G16  25727377.597 7 135198351.649 7     -2864.945 7        44.831               
G19  25494431.474 7 133974181.623 7      2488.999 7        44.734               
G10  27363941.210 6 143798549.174 6       455.063 6        40.394               
G03  24410433.857 7 128277756.744 7       550.796 7        46.551               
> 2012 09 14 12 50 22.0000000  0  5                                             
G06  25414980.044 7 133556677.635 7      -724.108 7        43.705               
G16  25727926.658 7 135201217.985 7     -2864.234 7        45.304               
G19  25493954.925 7 133971691.341 7      2491.067 7        44.346               
G10  27363857.815 6 143798096.809 6       450.802 6        40.016               
G03  24410331.235 7 128277207.108 7       545.220 7        45.965               
> 2012 09 14 12 50 23.0000000  0  5                                             
G06  25415118.047 7 133557400.360 7      -722.694 7        43.407               
G16  25728467.304 7 135204084.512 7     -2866.982 7        44.056               
G19  25493478.126 7 133969201.461 7      2487.632 7        45.062               
G10  27363772.723 6 143797644.996 6       453.749 6        40.109               
G03  24410223.896 7 128276658.150 7       549.069 7        46.285               
> 2012 09 14 12 50 24.0000000  0  5                                             
G06  25415243.737 7 133558123.716 7      -725.664 7        43.922               
G16  25729000.211 7 135206951.216 7     -2863.199 7        44.714               
G19  25492997.557 7 133966712.001 7      2491.614 7        45.526               
G10  27363672.942 6 143797193.756 6       450.333 6        40.647               
G03  24410111.160 7 128276109.883 7       547.810 7        46.113               
> 2012 09 14 12 50 25.0000000  0  5                                             
G06  25415379.792 7 133558847.693 7      -726.366 7        43.964               
G16  25729545.806 7 135209818.108 7     -2867.775 7        44.163               
G19  25492520.990 7 133964222.943 7      2484.754 7        45.273               
G10  27363589.780 6 143796743.100 6       445.166 6        40.674               
G03  24410007.752 7 128275562.315 7       546.880 7        46.539               
> 2012 09 14 12 50 26.0000000  0  5                                             
G06  25415519.957 7 133559572.315 7      -722.786 7        43.436               
G16  25730095.726 7 135212685.201 7     -2869.254 7        43.821               
G19  25492048.640 7 133961734.300 7      2486.731 7        45.256               
G10  27363501.882 6 143796293.006 6       445.460 6        39.809               
G03  24409905.291 7 128275015.446 7       544.869 7        46.905               
> 2012 09 14 12 50 27.0000000  0  5                                             
G06  25415657.298 7 133560297.556 7      -729.014 7        43.748               
G16  25730643.125 7 135215552.465 7     -2869.078 7        44.852               
G19  25491572.949 7 133959246.078 7      2486.303 7        45.127               
G10  27363411.697 6 143795843.503 6       454.047 6        39.432               
G03  24409797.809 7 128274469.262 7       547.294 7        47.056               
> 2012 09 14 12 50 28.0000000  0  5                                             
G06  25415794.407 7 133561023.430 7      -725.272 7        43.575               
G16  25731185.325 7 135218419.931 7     -2866.962 7        44.681               
G19  25491097.865 7 133956758.277 7      2487.755 7        45.333               
G10  27363328.928 6 143795394.570 6       446.207 6        39.436               
G03  24409697.099 7 128273923.782 7       541.538 7        47.196               
> 2012 09 14 12 50 29.0000000  0  5                                             
G06  25415931.355 7 133561749.955 7      -730.911 7        43.560               
G16  25731733.582 7 135221287.576 7     -2869.345 7        44.182               
G19  25490627.213 7 133954270.894 7      2486.809 7        45.746               
G10  27363242.084 6 143794946.205 6       446.639 6        39.695               
G03  24409590.117 7 128273378.981 7       543.854 7        47.052               
> 2012 09 14 12 50 30.0000000  0  5                                             
G06  25416070.877 7 133562477.074 7      -724.339 7        43.604               
G16  25732276.354 7 135224155.409 7     -2866.621 7        44.398               
G19  25490154.166 7 133951783.917 7      2489.961 7        45.092               
G10  27363159.762 6 143794498.394 6       455.764 6        39.964               
G03  24409487.906 7 128272834.879 7       542.943 7        46.504               
> 2012 09 14 12 50 31.0000000  0  5                                             
G06  25416211.774 7 133563204.838 7      -733.041 7        43.400               
G16  25732827.184 7 135227023.443 7     -2867.097 7        44.672               
G19  25489683.121 7 133949297.363 7      2482.363 7        45.005               
G10  27363069.201 6 143794051.174 6       447.504 6        39.547               
G03  24409386.124 7 128272291.484 7       539.636 7        46.597               
> 2012 09 14 12 50 32.0000000  0  5                                             
G06  25416351.956 7 133563933.233 7      -728.205 7        43.356               
G16  25733368.366 7 135229891.644 7     -2865.249 7        45.327               
G19  25489207.948 7 133946811.205 7      2484.245 7        45.160               
G10  27362985.056 6 143793604.541 6       450.450 6        38.970               
G03  24409279.428 7 128271748.763 7       538.738 7        46.027               
> 2012 09 14 12 50 33.0000000  0  5                                             
G06  25416491.317 7 133564662.253 7      -729.573 7        43.594               
G16  25733920.304 7 135232760.040 7     -2865.995 7        44.709               
G19  25488737.796 7 133944325.487 7      2484.977 7        45.263               
G10  27362902.483 6 143793158.464 6       439.570 6        38.864               
G03  24409175.985 7 128271206.733 7       540.235 7        46.885               
> 2012 09 14 12 50 34.0000000  0  5                                             
G06  25416627.497 7 133565391.897 7      -730.676 7        43.308               
G16  25734467.847 7 135235628.635 7     -2867.596 7        45.459               
G19  25488260.675 7 133941840.161 7      2482.713 7        45.511               
G10  27362818.124 6 143792712.956 6       449.306 6        39.496               
G03  24409074.882 7 128270665.409 7       538.158 7        47.251               
> 2012 09 14 12 50 37.0000000  0  5                                             
G06  25417043.488 7 133567584.652 7      -733.742 7        43.731               
G16  25736103.398 7 135244235.526 7     -2869.901 7        44.698               
G19  25486842.179 7 133934386.708 7      2484.150 7        45.287               
G10  27362566.099 6 143791379.861 6       443.478 6        39.312               
G03  24408767.731 7 128269045.560 7       538.681 7        46.080               
> 2012 09 14 12 50 38.0000000  0  5                                             
G06  25417181.454 7 133568316.837 7      -734.436 7        43.979               
G16  25736653.317 7 135247104.880 7     -2867.598 7        45.164               
G19  25486371.115 7 133931903.047 7      2486.012 7        45.506               
G10  27362480.328 6 143790936.641 6       436.763 6        39.537               
G03  24408668.540 7 128268507.008 7       537.254 7        46.707               
> 2012 09 14 12 50 39.0000000  0  5                                             
G06  25417325.300 7 133569049.634 7      -732.278 7        43.927               
G16  25737198.108 7 135249974.405 7     -2873.141 7        45.768               
G19  25485894.155 7 133929419.815 7      2482.596 7        44.775               
G10  27362398.631 6 143790494.007 6       444.745 6        39.635               
G03  24408564.292 7 128267969.150 7       539.193 7        47.022               
> 2012 09 14 12 50 40.0000000  0  5                                             
G06  25417461.587 7 133569783.083 7      -734.440 7        44.092               
G16  25737746.223 7 135252844.126 7     -2867.997 7        45.526               
G19  25485420.894 7 133926936.982 7      2485.411 7        44.907               
G10  27362315.075 6 143790051.935 6       440.222 6        39.880               
G03  24408460.044 7 128267431.987 7       536.968 7        47.132               
> 2012 09 14 12 50 41.0000000  0  5                                             
G06  25417603.342 7 133570517.140 7      -735.388 7        43.768               
G16  25738291.389 7 135255714.028 7     -2870.917 7        45.366               
G19  25484948.062 7 133924454.558 7      2480.726 7        44.331               
G10  27362230.608 6 143789610.439 6       435.415 6        39.933               
G03  24408358.459 7 128266895.516 7       538.916 7        47.192               
> 2012 09 14 12 50 42.0000000  0  5                                             
G06  25417740.129 7 133571251.840 7      -734.723 7        43.593               
G16  25738835.500 7 135258584.111 7     -2868.382 7        45.707               
G19  25484476.945 7 133921972.567 7      2482.824 7        44.829               
G10  27362149.983 6 143789169.523 6       438.553 6        39.599               
G03  24408255.122 7 128266359.741 7       533.426 7        47.018               
> 2012 09 14 12 50 43.0000000  0  5                                             
G06  25417880.544 7 133571987.169 7      -737.438 7        43.722               
G16  25739383.436 7 135261454.381 7     -2870.063 7        45.076               
G19  25484006.919 7 133919490.975 7      2483.702 7        44.545               
G10  27362056.189 6 143788729.169 6       441.335 6        39.403               
G03  24408152.483 7 128265824.654 7       534.264 7        46.600               
> 2012 09 14 12 50 44.0000000  0  5                                             
G06  25418019.583 7 133572723.099 7      -734.022 7        43.743               
G16  25739929.978 7 135264324.840 7     -2870.694 7        45.734               
G19  25483532.550 7 133917009.820 7      2481.607 7        44.461               
G10  27361983.408 6 143788289.381 6       455.823 6        39.066               
G03  24408055.043 7 128265290.259 7       536.756 7        47.225               
> 2012 09 14 12 50 45.0000000  0  5                                             
G06  25418157.049 7 133573459.675 7      -737.392 7        43.926               
G16  25740476.038 7 135267195.472 7     -2875.611 7        45.353               
G19  25483058.234 7 133914529.069 7      2480.722 7        44.444               
G10  27361897.815 6 143787850.197 6       432.583 6        39.362               
G03  24407952.957 7 128264756.564 7       532.679 7        46.857               
> 2012 09 14 12 50 46.0000000  0  5                                             
G06  25418298.393 7 133574196.876 7      -740.084 7        43.649               
G16  25741022.669 7 135270066.307 7     -2874.741 7        45.685               
G19  25482583.347 7 133912048.747 7      2481.102 7        44.497               
G10  27361813.295 6 143787411.530 6       441.627 6        39.429               
G03  24407850.371 7 128264223.570 7       531.152 7        46.708               
> 2012 09 14 12 50 47.0000000  0  5                                             
G06  25418437.825 7 133574934.728 7      -739.930 7        43.981               
G16  25741567.888 7 135272937.326 7     -2867.949 7        45.634               
G19  25482113.910 7 133909568.830 7      2478.048 7        44.314               
G10  27361734.457 6 143786973.478 6       436.927 6        39.448               
G03  24407749.608 7 128263691.253 7       531.137 7        46.830               
> 2012 09 14 12 50 48.0000000  0  5                                             
G06  25418581.010 7 133575673.188 7      -740.995 7        44.420               
G16  25742112.036 7 135275808.544 7     -2874.544 7        45.575               
G19  25481641.828 7 133907089.303 7      2481.147 7        44.153               
G10  27361645.755 6 143786535.976 6       441.230 6        39.056               
G03  24407647.647 7 128263159.628 7       534.123 7        47.421               
> 2012 09 14 12 50 49.0000000  0  5                                             
G06  25418724.141 7 133576412.281 7      -736.679 7        44.250               
G16  25742658.900 7 135278679.952 7     -2873.283 7        45.580               
G19  25481174.786 7 133904610.221 7      2476.265 7        43.765               
G10  27361558.786 6 143786099.080 6       432.241 6        39.470               
G03  24407541.970 7 128262628.709 7       531.978 7        46.964               
> 2012 09 14 12 50 50.0000000  0  5                                             
G06  25418864.788 7 133577152.012 7      -740.903 7        44.183               
G16  25743203.136 7 135281551.547 7     -2872.152 7        45.668               
G19  25480702.507 7 133902131.554 7      2481.008 7        43.799               
G10  27361475.910 6 143785662.717 6       428.255 6        39.466               
G03  24407444.280 7 128262098.476 7       527.650 7        46.763               
> 2012 09 14 12 50 51.0000000  0  5                                             
G06  25419006.918 7 133577892.353 7      -742.227 7        44.323               
G16  25743747.516 7 135284423.307 7     -2870.555 7        45.279               
G19  25480229.675 7 133899653.305 7      2475.851 7        43.997               
G10  27361396.750 6 143785226.919 6       434.412 6        39.086               
G03  24407341.783 7 128261568.939 7       526.150 7        46.075               
> 2012 09 14 12 50 52.0000000  0  5                                             
G06  25419150.478 7 133578633.355 7      -741.273 7        44.718               
G16  25744295.273 7 135287295.271 7     -2871.098 7        45.245               
G19  25479759.756 7 133897175.457 7      2481.108 7        44.379               
G10  27361307.387 6 143784791.740 6       438.318 6        38.357               
G03  24407239.519 7 128261040.099 7       524.605 7        46.008               
> 2012 09 14 12 50 53.0000000  0  5                                             
G06  25419293.698 7 133579374.975 7      -739.947 7        44.447               
G16  25744844.406 7 135290167.421 7     -2873.941 7        45.489               
G19  25479291.748 7 133894698.050 7      2473.423 7        44.067               
G10  27361231.622 6 143784357.110 6       434.088 6        39.010               
G03  24407142.794 7 128260511.946 7       529.774 7        46.871               
> 2012 09 14 12 50 54.0000000  0  5                                             
G06  25419434.899 7 133580117.230 7      -743.375 7        45.033               
G16  25745387.946 7 135293039.737 7     -2875.671 7        45.312               
G19  25478817.540 7 133892221.042 7      2477.143 7        45.046               
G10  27361143.957 6 143783923.041 6       435.529 6        38.921               
G03  24407045.425 7 128259984.493 7       528.344 7        47.020               
> 2012 09 14 12 50 55.0000000  0  5                                             
G06  25419573.563 7 133580860.115 7      -746.105 7        45.524               
G16  25745937.901 7 135295912.239 7     -2872.805 7        44.839               
G19  25478349.139 7 133889744.457 7      2473.039 7        45.251               
G10  27361062.153 6 143783489.541 6       439.512 6        38.836               
G03  24406943.089 7 128259457.738 7       523.923 7        47.294               
> 2012 09 14 12 50 56.0000000  0  5                                             
G06  25419715.175 7 133581603.618 7      -746.557 7        44.682               
G16  25746484.014 7 135298784.930 7     -2874.639 7        45.357               
G19  25477877.236 7 133887268.283 7      2478.367 7        45.027               
G10  27360989.855 6 143783056.635 6       431.823 6        38.480               
G03  24406842.380 7 128258931.664 7       526.303 7        46.935               
> 2012 09 14 12 50 57.0000000  0  5                                             
G06  25419856.447 7 133582347.753 7      -747.717 7        44.797               
G16  25747029.073 7 135301657.812 7     -2870.837 7        45.398               
G19  25477404.708 7 133884792.533 7      2473.304 7        44.156               
G10  27360904.387 6 143782624.280 6       438.416 6        39.394               
G03  24406739.954 7 128258406.277 7       528.735 7        46.753               
> 2012 09 14 12 50 58.0000000  0  5                                             
G06  25419996.647 7 133583092.502 7      -745.230 7        44.784               
G16  25747577.831 7 135304530.877 7     -2873.384 7        45.702               
G19  25476932.108 7 133882317.194 7      2471.272 7        44.617               
G10  27360824.959 6 143782192.505 6       437.415 6        39.575               
G03  24406642.193 7 128257881.599 7       520.755 7        46.748               
> 2012 09 14 12 50 59.0000000  0  5                                             
G06  25420137.974 7 133583837.897 7      -744.314 7        44.166               
G16  25748123.604 7 135307404.121 7     -2873.018 7        45.611               
G19  25476461.634 7 133879842.275 7      2473.296 7        44.852               
G10  27360736.829 6 143781761.307 6       433.359 6        39.097               
G03  24406541.018 7 128257357.613 7       521.528 7        46.713               
> 2012 09 14 12 51 00.0000000  0  5                                             
G06  25420277.423 7 133584583.908 7      -744.484 7        44.369               
G16  25748672.451 7 135310277.548 7     -2870.035 7        45.474               
G19  25475995.288 7 133877367.784 7      2472.515 7        44.439               
G10  27360662.798 6 143781330.693 6       428.140 6        38.922               
G03  24406440.648 7 128256834.323 7       522.001 7        46.400               
> 2012 09 14 12 51 01.0000000  0  5                                             
G06  25420418.678 7 133585330.554 7      -746.026 7        44.225               
G16  25749220.315 7 135313151.167 7     -2873.888 7        45.289               
G19  25475523.332 7 133874893.694 7      2473.418 7        44.958               
G10  27360576.741 6 143780900.631 6       428.048 6        38.999               
G03  24406339.974 7 128256311.727 7       525.765 7        46.930               
> 2012 09 14 12 51 02.0000000  0  5                                             
G06  25420566.473 7 133586077.821 7      -749.133 7        43.919               
G16  25749766.607 7 135316024.975 7     -2873.933 7        45.300               
G19  25475056.504 7 133872420.021 7      2476.452 7        45.322               
G10  27360494.257 6 143780471.164 6       431.555 6        38.227               
G03  24406242.373 7 128255789.835 7       517.898 7        46.305               
> 2012 09 14 12 51 03.0000000  0  5                                             
G06  25420710.265 7 133586825.727 7      -745.624 7        44.583               
G16  25750311.452 7 135318898.965 7     -2872.520 7        44.991               
G19  25474586.566 7 133869946.780 7      2473.340 7        45.366               
G10  27360405.931 6 143780042.241 6       427.521 6        38.370               
G03  24406144.183 7 128255268.628 7       519.092 7        45.940               
> 2012 09 14 12 51 04.0000000  0  5                                             
G06  25420850.822 7 133587574.258 7      -744.035 7        44.106               
G16  25750857.922 7 135321773.139 7     -2875.403 7        45.435               
G19  25474114.484 7 133867473.961 7      2466.892 7        45.187               
G10  27360320.552 6 143779613.909 6       430.531 6        38.684               
G03  24406047.565 7 128254748.104 7       519.930 7        46.980               
> 2012 09 14 12 51 05.0000000  0  5                                             
G06  25420993.256 7 133588323.428 7      -754.759 7        44.349               
G16  25751403.624 7 135324647.494 7     -2874.857 7        44.938               
G19  25473640.795 7 133865001.546 7      2476.560 7        45.043               
G10  27360243.162 6 143779186.151 6       424.743 6        38.630               
G03  24405946.838 7 128254228.297 7       518.807 7        47.303               
> 2012 09 14 12 51 06.0000000  0  5                                             
G06  25421137.674 7 133589073.229 7      -751.410 7        44.000               
G16  25751946.235 7 135327522.039 7     -2876.598 7        45.087               
G19  25473173.126 7 133862529.546 7      2473.476 7        44.961               
G10  27360164.627 6 143778758.970 6       421.936 6        38.367               
G03  24405847.897 7 128253709.159 7       521.130 7        47.578               
> 2012 09 14 12 51 07.0000000  0  5                                             
G06  25421275.355 7 133589823.661 7      -748.497 7        44.206               
G16  25752493.920 7 135330396.759 7     -2872.207 7        45.230               
G19  25472701.795 7 133860057.981 7      2469.617 7        45.093               
G10  27360075.336 6 143778332.349 6       428.717 6        38.138               
G03  24405751.601 7 128253190.735 7       517.339 7        47.100               
> 2012 09 14 12 51 08.0000000  0  5                                             
G06  25421422.524 7 133590574.720 7      -754.113 7        44.365               
G16  25753041.195 7 135333271.680 7     -2873.444 7        44.863               
G19  25472229.839 7 133857586.831 7      2468.409 7        44.966               
G10  27360002.216 6 143777906.312 6       423.682 6        38.615               
G03  24405651.677 7 128252672.994 7       521.463 7        46.135               
> 2012 09 14 12 51 09.0000000  0  5                                             
G06  25421568.907 7 133591326.405 7      -753.049 7        44.743               
G16  25753586.504 7 135336146.772 7     -2877.239 7        44.912               
G19  25471761.081 7 133855116.092 7      2470.445 7        45.468               
G10  27359921.466 6 143777480.827 6       424.385 6        38.711               
G03  24405552.451 7 128252155.968 7       515.044 7        46.794               
> 2012 09 14 12 51 10.0000000  0  5                                             
G06  25421710.251 7 133592078.712 7      -753.727 7        44.677               
G16  25754135.673 7 135339022.056 7     -2873.969 7        45.411               
G19  25471291.250 7 133852645.784 7      2472.474 7        45.011               
G10  27359836.284 6 143777055.951 6       422.055 6        38.317               
G03  24405454.761 7 128251639.620 7       514.332 7        47.112               
> 2012 09 14 12 51 11.0000000  0  5                                             
G06  25421854.508 7 133592831.652 7      -754.315 7        44.127               
G16  25754683.269 7 135341897.512 7     -2873.616 7        44.698               
G19  25470820.777 7 133850175.905 7      2470.386 7        45.173               
G10  27359758.875 6 143776631.628 6       425.181 6        38.853               
G03  24405356.767 7 128251123.974 7       514.535 7        46.330               
> 2012 09 14 12 51 12.0000000  0  5                                             
G06  25422001.141 7 133593585.238 7      -754.073 7        44.113               
G16  25755231.687 7 135344773.170 7     -2876.109 7        44.984               
G19  25470353.037 7 133847706.422 7      2469.511 7        44.818               
G10  27359679.483 6 143776207.860 6       429.714 6        38.879               
G03  24405256.611 7 128250609.018 7       515.546 7        46.789               
> 2012 09 14 12 51 13.0000000  0  5                                             
G06  25422142.485 7 133594339.451 7      -757.157 7        44.287               
G16  25755781.803 7 135347649.000 7     -2877.596 7        45.299               
G19  25469880.527 7 133845237.357 7      2469.719 7        44.557               
G10  27359594.516 6 143775784.678 6       418.185 6        39.604               
G03  24405156.866 7 128250094.764 7       513.758 7        46.829               
> 2012 09 14 12 51 14.0000000  0  5                                             
G06  25422281.774 7 133595094.281 7      -753.925 7        44.812               
G16  25756330.114 7 135350525.007 7     -2874.916 7        45.171               
G19  25469407.426 7 133842768.729 7      2468.886 7        44.671               
G10  27359521.896 6 143775362.053 6       421.950 6        39.552               
G03  24405057.979 7 128249581.208 7       512.199 7        46.866               
> 2012 09 14 12 51 15.0000000  0  5                                             
G06  25422425.012 7 133595849.728 7      -757.008 7        44.733               
G16  25756873.457 7 135353401.205 7     -2877.298 7        45.612               
G19  25468937.400 7 133840300.501 7      2469.824 7        44.780               
G10  27359435.232 6 143774940.028 6       426.962 6        39.640               
G03  24404961.897 7 128249068.337 7       511.942 7        47.037               
> 2012 09 14 12 51 16.0000000  0  5                                             
G06  25422568.107 7 133596605.824 7      -751.143 7        44.026               
G16  25757424.359 7 135356277.584 7     -2878.033 7        45.700               
G19  25468464.818 7 133837832.713 7      2467.678 7        44.254               
G10  27359356.036 6 143774518.555 6       426.006 6        39.949               
G03  24404868.013 7 128248556.164 7       510.589 7        47.177               
> 2012 09 14 12 51 17.0000000  0  5                                             
G06  25422710.738 7 133597362.540 7      -756.435 7        44.576               
G16  25757970.133 7 135359154.135 7     -2872.219 7        44.819               
G19  25467999.669 7 133835365.325 7      2466.577 7        44.098               
G10  27359276.162 6 143774097.665 6       424.947 6        39.457               
G03  24404772.075 7 128248044.695 7       511.030 7        46.696               
> 2012 09 14 12 51 18.0000000  0  5                                             
G06  25422851.992 7 133598119.872 7      -760.390 7        44.713               
G16  25758513.762 7 135362030.891 7     -2878.254 7        44.469               
G19  25467523.567 7 133832898.380 7      2461.785 7        44.341               
G10  27359195.090 6 143773677.311 6       419.141 6        39.351               
G03  24404673.473 7 128247533.922 7       507.081 7        46.338               
> 2012 09 14 12 51 19.0000000  0  5                                             
G06  25422999.608 7 133598877.849 7      -757.251 7        43.704               
G16  25759063.985 7 135364907.822 7     -2877.250 7        45.254               
G19  25467056.506 7 133830431.821 7      2470.204 7        43.840               
G10  27359117.610 6 143773257.585 6       417.531 6        39.873               
G03  24404576.212 7 128247023.832 7       510.603 7        46.383               
> 2012 09 14 12 51 20.0000000  0  5                                             
G06  25423139.809 7 133599636.421 7      -758.568 7        43.854               
G16  25759610.295 7 135367784.946 7     -2876.104 7        44.958               
G19  25466588.731 7 133827965.711 7      2467.422 7        44.281               
G10  27359038.968 6 143772838.401 6       423.554 6        38.941               
G03  24404478.111 7 128246514.423 7       508.852 7        46.853               
> 2012 09 14 12 51 21.0000000  0  5                                             
G06  25423288.318 7 133600395.652 7      -759.906 7        43.964               
G16  25760155.407 7 135370662.246 7     -2877.629 7        44.740               
G19  25466120.116 7 133825499.989 7      2470.302 7        44.183               
G10  27358958.504 6 143772419.811 6       413.476 6        39.238               
G03  24404380.171 7 128246005.733 7       506.971 7        47.062               
> 2012 09 14 12 51 22.0000000  0  5                                             
G06  25423433.361 7 133601155.514 7      -760.117 7        43.918               
G16  25760704.165 7 135373539.724 7     -2880.103 7        44.220               
G19  25465649.088 7 133823034.713 7      2463.486 7        44.484               
G10  27358879.130 6 143772001.792 6       413.397 6        39.315               
G03  24404282.177 7 128245497.722 7       511.187 7        46.872               
> 2012 09 14 12 51 23.0000000  0  5                                             
G06  25423577.546 7 133601916.013 7      -763.174 7        43.672               
G16  25761253.548 7 135376417.397 7     -2879.475 7        45.033               
G19  25465181.206 7 133820569.843 7      2469.894 7        44.983               
G10  27358800.131 6 143771584.317 6       411.574 6        40.012               
G03  24404184.398 7 128244990.416 7       506.131 7        45.929               
> 2012 09 14 12 51 24.0000000  0  5                                             
G06  25423724.179 7 133602677.133 7      -764.851 7        44.369               
G16  25761800.054 7 135379295.248 7     -2880.631 7        45.218               
G19  25464712.251 7 133818105.392 7      2468.977 7        44.808               
G10  27358712.108 6 143771167.434 6       423.050 6        39.101               
G03  24404087.745 7 128244483.801 7       504.328 7        46.409               
> 2012 09 14 12 51 25.0000000  0  5                                             
G06  25423865.809 7 133603438.892 7      -763.037 7        43.559               
G16  25762349.705 7 135382173.277 7     -2877.353 7        44.970               
G19  25464246.745 7 133815641.374 7      2461.420 7        44.644               
G10  27358642.490 6 143770751.116 6       412.502 6        39.157               
G03  24403991.448 7 128243977.881 7       505.840 7        46.421               
> 2012 09 14 12 51 26.0000000  0  5                                             
G06  25424011.656 7 133604201.286 7      -766.038 7        44.107               
G16  25762893.656 7 135385051.495 7     -2881.217 7        44.971               
G19  25463777.737 7 133813177.759 7      2466.356 7        44.858               
G10  27358559.328 6 143770335.358 6       411.471 6        39.171               
G03  24403895.688 7 128243472.650 7       504.118 7        46.265               
> 2012 09 14 12 51 27.0000000  0  5                                             
G06  25424162.006 7 133604964.279 7      -763.095 7        44.075               
G16  25763442.771 7 135387929.885 7     -2877.913 7        44.305               
G19  25463310.015 7 133810714.578 7      2465.751 7        45.042               
G10  27358479.203 6 143769920.197 6       415.453 6        39.111               
G03  24403800.625 7 128242968.113 7       509.213 7        46.021               
> 2012 09 14 12 51 28.0000000  0  5                                             
G06  25424306.191 7 133605727.907 7      -762.764 7        43.632               
G16  25763990.135 7 135390808.458 7     -2877.088 7        44.233               
G19  25462840.989 7 133808251.799 7      2467.320 7        45.049               
G10  27358404.314 6 143769505.594 6       416.094 6        39.305               
G03  24403706.187 7 128242464.280 7       505.462 7        46.484               
> 2012 09 14 12 51 29.0000000  0  5                                             
G06  25424454.433 7 133606492.177 7      -769.588 7        43.893               
G16  25764538.178 7 135393687.215 7     -2878.239 7        44.610               
G19  25462372.767 7 133805789.459 7      2462.824 7        44.253               
G10  27358326.638 6 143769091.593 6       412.463 6        39.492               
G03  24403609.838 7 128241961.136 7       501.369 7        46.389               
> 2012 09 14 12 51 30.0000000  0  5                                             
G06  25424598.779 7 133607257.070 7      -766.695 7        44.200               
G16  25765085.738 7 135396566.160 7     -2878.930 7        45.075               
G19  25461906.189 7 133803327.534 7      2466.277 7        44.638               
G10  27358251.266 6 143768678.147 6       404.129 6        39.871               
G03  24403513.559 7 128241458.694 7       502.623 7        46.630               
> 2012 09 14 12 51 31.0000000  0  5                                             
G06  25424743.535 7 133608022.598 7      -767.335 7        43.978               
G16  25765636.355 7 135399445.285 7     -2877.762 7        45.325               
G19  25461435.537 7 133800866.026 7      2461.073 7        44.856               
G10  27358169.908 6 143768265.246 6       417.816 6        39.876               
G03  24403420.229 7 128240956.945 7       502.018 7        46.645               
> 2012 09 14 12 51 32.0000000  0  5                                             
G06  25424888.024 7 133608788.761 7      -763.866 7        43.884               
G16  25766180.395 7 135402324.586 7     -2878.787 7        44.685               
G19  25460969.727 7 133798404.941 7      2459.605 7        44.332               
G10  27358085.710 6 143767852.948 6       408.972 6        39.205               
G03  24403327.686 7 128240455.896 7       498.142 7        46.350               
> 2012 09 14 12 51 33.0000000  0  5                                             
G06  25425034.354 7 133609555.545 7      -770.262 7        43.988               
G16  25766727.866 7 135405204.080 7     -2877.800 7        44.758               
G19  25460503.149 7 133795944.279 7      2460.896 7        45.084               
G10  27358009.194 6 143767441.191 6       409.141 6        39.290               
G03  24403231.479 7 128239955.536 7       501.870 7        46.473               
> 2012 09 14 12 51 34.0000000  0  5                                             
G06  25425177.002 7 133610322.938 7      -771.886 7        43.843               
G16  25767273.586 7 135408083.755 7     -2879.378 7        45.189               
G19  25460036.017 7 133793484.038 7      2459.838 7        44.828               
G10  27357933.626 6 143767030.040 6       411.686 6        39.468               
G03  24403137.059 7 128239455.886 7       500.464 7        47.115               
> 2012 09 14 12 51 35.0000000  0  5                                             
G06  25425318.507 7 133611090.981 7      -768.781 7        43.680               
G16  25767825.220 7 135410963.614 7     -2879.690 7        44.420               
G19  25459566.866 7 133791024.227 7      2456.971 7        44.792               
G10  27357851.590 6 143766619.466 6       414.313 6        38.902               
G03  24403044.605 7 128238956.917 7       496.710 7        46.810               
> 2012 09 14 12 51 36.0000000  0  5                                             
G06  25425466.570 7 133611859.625 7      -768.923 7        43.776               
G16  25768373.871 7 135413843.638 7     -2880.622 7        44.478               
G19  25459097.661 7 133788564.831 7      2458.493 7        44.876               
G10  27357774.449 6 143766209.432 6       406.258 6        39.393               
G03  24402950.757 7 128238458.658 7       495.755 7        46.566               
> 2012 09 14 12 51 37.0000000  0  5                                             
G06  25425615.973 7 133612628.930 7      -770.243 7        43.678               
G16  25768923.129 7 135416723.861 7     -2879.215 7        45.175               
G19  25458629.618 7 133786105.859 7      2459.514 7        44.890               
G10  27357699.792 6 143765799.986 6       411.800 6        39.470               
G03  24402856.069 7 128237961.079 7       496.982 7        46.643               
> 2012 09 14 12 51 38.0000000  0  5                                             
G06  25425759.407 7 133613398.850 7      -772.568 7        43.590               
G16  25769470.189 7 135419604.250 7     -2878.387 7        44.724               
G19  25458159.824 7 133783647.303 7      2458.143 7        44.889               
G10  27357619.810 6 143765391.121 6       410.757 6        39.083               
G03  24402756.860 7 128237464.211 7       501.942 7        46.978               
> 2012 09 14 12 51 39.0000000  0  5                                             
G06  25425910.490 7 133614169.397 7      -765.856 7        43.965               
G16  25770018.321 7 135422484.840 7     -2879.709 7        44.924               
G19  25457689.690 7 133781189.180 7      2458.547 7        44.359               
G10  27357543.152 6 143764982.806 6       409.854 6        39.328               
G03  24402666.675 7 128236968.015 7       496.006 7        46.798               
> 2012 09 14 12 51 40.0000000  0  5                                             
G06  25426060.482 7 133614940.559 7      -771.506 7        43.271               
G16  25770566.150 7 135425365.603 7     -2881.329 7        45.218               
G19  25457225.363 7 133778731.464 7      2460.725 7        44.834               
G10  27357470.533 6 143764575.079 6       402.113 6        38.981               
G03  24402569.432 7 128236472.533 7       495.277 7        46.679               
> 2012 09 14 12 51 41.0000000  0  5                                             
G06  25426208.206 7 133615712.362 7      -772.786 7        43.724               
G16  25771114.729 7 135428246.538 7     -2881.322 7        45.065               
G19  25456756.248 7 133776274.186 7      2454.591 7        44.399               
G10  27357392.409 6 143764167.917 6       405.601 6        39.692               
G03  24402477.317 7 128235977.747 7       496.159 7        46.588               
> 2012 09 14 12 51 42.0000000  0  5                                             
G06  25426352.748 7 133616484.785 7      -767.670 7        44.321               
G16  25771664.076 7 135431127.665 7     -2878.482 7        45.651               
G19  25456287.668 7 133773817.317 7      2453.715 7        44.466               
G10  27357311.891 6 143763761.340 6       410.145 6        39.516               
G03  24402381.575 7 128235483.660 7       492.670 7        46.420               
> 2012 09 14 12 51 43.0000000  0  5                                             
G06  25426501.150 7 133617257.852 7      -772.540 7        44.188               
G16  25772214.442 7 135434008.972 7     -2878.875 7        45.167               
G19  25455822.037 7 133771360.868 7      2456.817 7        44.576               
G10  27357235.805 6 143763355.326 6       405.648 6        39.284               
G03  24402288.262 7 128234990.250 7       494.033 7        46.742               
> 2012 09 14 12 51 44.0000000  0  5                                             
G06  25426652.322 7 133618031.533 7      -773.488 7        44.517               
G16  25772759.608 7 135436890.465 7     -2881.710 7        45.071               
G19  25455351.385 7 133768904.860 7      2457.730 7        44.506               
G10  27357156.592 6 143762949.878 6       405.029 6        39.515               
G03  24402195.040 7 128234497.552 7       489.430 7        46.694               
> 2012 09 14 12 51 45.0000000  0  5                                             
G06  25426797.347 7 133618805.853 7      -773.037 7        44.069               
G16  25773312.994 7 135439772.137 7     -2879.723 7        44.777               
G19  25454885.879 7 133766449.266 7      2450.927 7        44.664               
G10  27357072.804 6 143762544.994 6       402.743 6        39.157               
G03  24402102.210 7 128234005.544 7       491.491 7        46.443               
> 2012 09 14 12 51 46.0000000  0  5                                             
G06  25426947.930 7 133619580.788 7      -775.509 7        44.004               
G16  25773862.663 7 135442653.989 7     -2882.938 7        44.914               
G19  25454421.141 7 133763994.089 7      2452.658 7        44.296               
G10  27357000.542 6 143762140.719 6       401.433 6        38.446               
G03  24402007.826 7 128233514.225 7       485.986 7        46.688               
> 2012 09 14 12 51 47.0000000  0  5                                             
G06  25427092.544 7 133620356.353 7      -775.158 7        44.403               
G16  25774410.724 7 135445536.005 7     -2881.607 7        44.913               
G19  25453951.150 7 133761539.337 7      2455.577 7        44.427               
G10  27356918.737 6 143761736.988 6       404.374 6        38.960               
G03  24401912.245 7 128233023.607 7       490.557 7        46.710               
> 2012 09 14 12 51 48.0000000  0  5                                             
G06  25427235.138 7 133621132.545 7      -779.184 7        44.159               
G16  25774958.517 7 135448418.211 7     -2884.567 7        45.484               
G19  25453485.644 7 133759085.000 7      2455.632 7        44.530               
G10  27356842.026 6 143761333.835 6       398.851 6        38.381               
G03  24401820.862 7 128232533.679 7       487.023 7        46.679               
> 2012 09 14 12 51 49.0000000  0  5                                             
G06  25427384.095 7 133621909.357 7      -778.064 7        43.940               
G16  25775504.630 7 135451300.600 7     -2881.487 7        45.197               
G19  25453019.102 7 133756631.078 7      2455.882 7        44.521               
G10  27356764.385 6 143760931.251 6       398.650 6        38.658               
G03  24401726.282 7 128232044.454 7       490.546 7        46.604               
> 2012 09 14 12 51 50.0000000  0  5                                             
G06  25427531.157 7 133622686.816 7      -775.892 7        43.844               
G16  25776053.780 7 135454183.161 7     -2881.269 7        44.966               
G19  25452551.059 7 133754177.599 7      2454.590 7        44.617               
G10  27356700.342 6 143760529.232 6       405.481 6        39.014               
G03  24401636.829 7 128231555.922 7       488.000 7        45.967               
> 2012 09 14 12 51 51.0000000  0  5                                             
G06  25427678.737 7 133623464.897 7      -781.416 7        44.255               
G16  25776602.413 7 135457065.912 7     -2879.954 7        44.869               
G19  25452084.892 7 133751724.528 7      2451.587 7        43.901               
G10  27356618.341 6 143760127.805 6       400.568 6        39.256               
G03  24401540.283 7 128231068.086 7       486.750 7        45.827               
> 2012 09 14 12 51 52.0000000  0  5                                             
G06  25427825.406 7 133624243.629 7      -777.285 7        44.188               
G16  25777151.653 7 135459948.846 7     -2882.852 7        45.254               
G19  25451620.601 7 133749271.907 7      2453.221 7        44.188               
G10  27356536.751 6 143759726.930 6       403.559 6        38.552               
G03  24401446.739 7 128230580.948 7       486.571 7        46.419               
> 2012 09 14 12 51 53.0000000  0  5                                             
G06  25427974.451 7 133625022.971 7      -777.238 7        43.980               
G16  25777697.409 7 135462831.947 7     -2883.885 7        45.605               
G19  25451152.325 7 133746819.686 7      2456.202 7        44.505               
G10  27356465.096 6 143759326.644 6       397.659 6        39.643               
G03  24401353.141 7 128230094.503 7       485.172 7        46.636               
> 2012 09 14 12 51 54.0000000  0  5                                             
G06  25428121.603 7 133625802.969 7      -782.610 7        43.921               
G16  25778251.295 7 135465715.247 7     -2885.907 7        45.144               
G19  25450681.637 7 133744367.898 7      2449.803 7        44.673               
G10  27356391.083 6 143758926.920 6       400.072 6        39.180               
G03  24401260.990 7 128229608.763 7       483.976 7        47.105               
> 2012 09 14 12 51 55.0000000  0  5                                             
G06  25428274.204 7 133626583.568 7      -780.312 7        43.468               
G16  25778799.302 7 135468598.721 7     -2886.963 7        44.920               
G19  25450217.043 7 133741916.520 7      2453.281 7        44.708               
G10  27356315.140 6 143758527.746 6       403.213 6        39.348               
G03  24401171.806 7 128229123.709 7       483.416 7        46.857               
> 2012 09 14 12 51 56.0000000  0  5                                             
G06  25428422.821 7 133627364.780 7      -777.976 7        44.134               
G16  25779351.705 7 135471482.357 7     -2886.673 7        45.001               
G19  25449752.555 7 133739465.576 7      2449.964 7        44.771               
G10  27356246.415 6 143758129.187 6       398.059 6        39.242               
G03  24401073.776 7 128228639.357 7       486.458 7        46.745               
> 2012 09 14 12 51 57.0000000  0  5                                             
G06  25428569.776 7 133628146.650 7      -782.076 7        43.834               
G16  25779896.282 7 135474366.196 7     -2886.568 7        44.496               
G19  25449284.494 7 133737015.065 7      2452.853 7        44.792               
G10  27356172.741 6 143757731.174 6       398.520 6        39.423               
G03  24400983.860 7 128228155.708 7       485.786 7        46.574               
> 2012 09 14 12 51 58.0000000  0  5                                             
G06  25428721.609 7 133628929.125 7      -787.871 7        43.801               
G16  25780443.324 7 135477250.194 7     -2886.237 7        45.083               
G19  25448820.454 7 133734564.983 7      2451.686 7        44.571               
G10  27356087.542 6 143757333.725 6       396.448 6        39.758               
G03  24400891.763 7 128227672.754 7       482.636 7        46.151               
> 2012 09 14 12 51 59.0000000  0  5                                             
G06  25428866.169 7 133629712.242 7      -786.429 7        44.147               
G16  25780991.653 7 135480134.380 7     -2884.860 7        44.847               
G19  25448347.103 7 133732115.319 7      2450.103 7        44.794               
G10  27356015.297 6 143756936.862 6       396.983 6        39.474               
G03  24400798.486 7 128227190.495 7       479.200 7        46.043               
> 2012 09 14 12 52 00.0000000  0  5                                             
G06  25429021.022 7 133630495.977 7      -789.693 7        43.800               
G16  25781537.641 7 135483018.749 7     -2883.209 7        44.933               
G19  25447882.098 7 133729666.073 7      2451.105 7        44.609               
G10  27355935.494 6 143756540.578 6       394.469 6        40.034               
G03  24400707.694 7 128226708.929 7       482.792 7        46.367               
> 2012 09 14 12 52 01.0000000  0  5                                             
G06  25429166.190 7 133631280.340 7      -786.774 7        44.151               
G16  25782086.291 7 135485903.292 7     -2882.800 7        44.726               
G19  25447416.306 7 133727217.262 7      2447.492 7        44.681               
G10  27355860.480 6 143756144.847 6       396.384 6        39.836               
G03  24400618.688 7 128226228.056 7       482.550 7        46.375               
> 2012 09 14 12 52 02.0000000  0  5                                             
G06  25429313.645 7 133632065.320 7      -789.976 7        44.178               
G16  25782635.031 7 135488788.017 7     -2880.231 7        44.631               
G19  25446950.568 7 133724768.873 7      2445.111 7        44.832               
G10  27355790.630 6 143755749.681 6       393.352 6        40.205               
G03  24400526.305 7 128225747.889 7       480.435 7        46.747               
> 2012 09 14 12 52 03.0000000  0  5                                             
G06  25429465.872 7 133632850.960 7      -785.534 7        43.498               
G16  25783181.376 7 135491672.909 7     -2881.792 7        44.685               
G19  25446483.453 7 133722320.901 7      2446.254 7        44.083               
G10  27355708.004 6 143755355.103 6       393.803 6        40.117               
G03  24400432.672 7 128225268.421 7       479.750 7        46.670               
> 2012 09 14 12 52 04.0000000  0  5                                             
G06  25429615.203 7 133633637.209 7      -786.235 7        42.966               
G16  25783730.009 7 135494557.994 7     -2884.115 7        43.996               
G19  25446017.251 7 133719873.358 7      2447.757 7        43.980               
G10  27355634.991 6 143754961.093 6       397.588 6        39.961               
G03  24400344.506 7 128224789.649 7       481.111 7        46.383               
> 2012 09 14 12 52 05.0000000  0  5                                             
G06  25429765.481 7 133634424.092 7      -788.615 7        43.747               
G16  25784281.876 7 135497443.263 7     -2891.126 7        44.253               
G19  25445552.942 7 133717426.239 7      2442.997 7        44.191               
G10  27355558.494 6 143754567.663 6       394.892 6        39.342               
G03  24400254.625 7 128224311.565 7       479.823 7        46.027               
> 2012 09 14 12 52 06.0000000  0  5                                             
G06  25429914.563 7 133635211.588 7      -786.796 7        43.341               
G16  25784827.917 7 135500328.702 7     -2884.126 7        44.702               
G19  25445087.650 7 133714979.549 7      2448.075 7        44.761               
G10  27355485.624 6 143754174.805 6       398.169 6        39.506               
G03  24400162.153 7 128223834.183 7       477.068 7        46.808               
> 2012 09 14 12 52 07.0000000  0  5                                             
G06  25430062.733 7 133635999.737 7      -786.716 7        43.912               
G16  25785378.301 7 135503214.324 7     -2883.680 7        44.604               
G19  25444626.844 7 133712533.270 7      2446.189 7        44.930               
G10  27355407.893 6 143753782.521 6       392.949 6        39.800               
G03  24400070.770 7 128223357.494 7       475.845 7        46.253               
> 2012 09 14 12 52 08.0000000  0  5                                             
G06  25430212.904 7 133636788.506 7      -795.825 7        43.710               
G16  25785930.454 7 135506100.120 7     -2884.516 7        44.957               
G19  25444159.837 7 133710087.444 7      2447.114 7        45.011               
G10  27355335.113 6 143753390.782 6       396.831 6        39.996               
G03  24399980.639 7 128222881.506 7       476.663 7        46.140               
> 2012 09 14 12 52 09.0000000  0  5                                             
G06  25430360.305 7 133637577.920 7      -788.208 7        43.418               
G16  25786482.786 7 135508986.098 7     -2885.163 7        44.838               
G19  25443696.690 7 133707642.033 7      2444.972 7        44.806               
G10  27355259.956 6 143752999.636 6       390.228 6        40.096               
G03  24399886.719 7 128222406.222 7       472.185 7        45.727               
> 2012 09 14 12 52 10.0000000  0  5                                             
G06  25430514.980 7 133638367.954 7      -793.597 7        43.394               
G16  25787030.203 7 135511872.256 7     -2885.909 7        44.624               
G19  25443230.970 7 133705197.053 7      2445.285 7        45.266               
G10  27355189.355 6 143752609.065 6       391.040 6        39.657               
G03  24399800.877 7 128221931.620 7       475.845 7        46.390               
> 2012 09 14 12 52 11.0000000  0  5                                             
G06  25430670.494 7 133639158.605 7      -786.634 7        42.982               
G16  25787578.532 7 135514758.586 7     -2883.950 7        44.788               
G19  25442768.144 7 133702752.499 7      2442.050 7        44.684               
G10  27355114.913 6 143752219.050 6       387.252 6        39.539               
G03  24399706.903 7 128221457.728 7       476.039 7        46.302               
> 2012 09 14 12 52 12.0000000  0  5                                             
G06  25430814.465 7 133639949.877 7      -793.065 7        43.290               
G16  25788127.468 7 135517645.100 7     -2885.549 7        45.056               
G19  25442305.122 7 133700308.361 7      2445.397 7        44.609               
G10  27355042.919 6 143751829.620 6       386.596 6        40.236               
G03  24399623.008 7 128220984.528 7       474.492 7        46.333               
> 2012 09 14 12 52 13.0000000  0  5                                             
G06  25430966.458 7 133640741.780 7      -791.995 7        43.201               
G16  25788677.763 7 135520531.790 7     -2886.301 7        44.569               
G19  25441837.990 7 133697864.646 7      2443.434 7        45.404               
G10  27354971.389 6 143751440.729 6       389.021 6        40.416               
G03  24399531.287 7 128220512.026 7       474.295 7        46.568               
> 2012 09 14 12 52 14.0000000  0  5                                             
G06  25431121.240 7 133641534.323 7      -796.136 7        43.495               
G16  25789225.824 7 135523418.657 7     -2883.262 7        44.464               
G19  25441369.982 7 133695421.357 7      2444.242 7        44.905               
G10  27354896.303 6 143751052.428 6       386.175 6        40.213               
G03  24399440.977 7 128220040.220 7       469.434 7        46.354               
> 2012 09 14 12 52 15.0000000  0  5                                             
G06  25431272.037 7 133642327.467 7      -790.438 7        43.504               
G16  25789777.172 7 135526305.712 7     -2891.520 7        44.340               
G19  25440903.011 7 133692978.501 7      2442.064 7        45.130               
G10  27354816.179 6 143750664.697 6       380.927 6        40.273               
G03  24399350.381 7 128219569.101 7       469.603 7        46.668               
> 2012 09 14 12 52 16.0000000  0  5                                             
G06  25431420.939 7 133643121.258 7      -791.166 7        43.350               
G16  25790324.572 7 135529192.930 7     -2889.841 7        44.707               
G19  25440440.418 7 133690536.081 7      2439.289 7        44.479               
G10  27354743.595 6 143750277.554 6       387.235 6        39.526               
G03  24399264.717 7 128219098.687 7       468.575 7        46.894               
> 2012 09 14 12 52 17.0000000  0  5                                             
G06  25431572.022 7 133643915.677 7      -796.079 7        43.411               
G16  25790878.458 7 135532080.340 7     -2889.233 7        44.349               
G19  25439973.643 7 133688094.059 7      2441.245 7        44.383               
G10  27354672.208 6 143749890.961 6       386.983 6        39.386               
G03  24399174.764 7 128218628.969 7       467.082 7        46.466               
> 2012 09 14 12 52 18.0000000  0  5                                             
G06  25431721.282 7 133644710.711 7      -795.235 7        43.241               
G16  25791430.271 7 135534967.928 7     -2886.673 7        45.044               
G19  25439506.869 7 133685652.481 7      2443.424 7        44.208               
G10  27354598.981 6 143749504.949 6       384.971 6        39.468               
G03  24399085.615 7 128218159.941 7       469.504 7        46.247               
> 2012 09 14 12 52 19.0000000  0  5                                             
G06  25431872.293 7 133645506.374 7      -794.274 7        43.286               
G16  25791975.312 7 135537855.683 7     -2888.597 7        45.081               
G19  25439042.185 7 133683211.328 7      2442.400 7        44.442               
G10  27354525.682 6 143749119.522 6       381.934 6        39.589               
G03  24398993.393 7 128217691.618 7       469.511 7        46.308               
> 2012 09 14 12 52 20.0000000  0  5                                             
G06  25432024.180 7 133646302.658 7      -792.626 7        43.482               
G16  25792519.710 7 135540743.620 7     -2887.459 7        45.506               
G19  25438583.666 7 133680770.599 7      2438.453 7        44.889               
G10  27354456.654 6 143748734.657 6       379.114 6        39.255               
G03  24398907.390 7 128217223.990 7       464.996 7        46.275               
> 2012 09 14 12 52 21.0000000  0  5                                             
G06  25432175.494 7 133647099.573 7      -799.092 7        44.031               
G16  25793073.239 7 135543631.736 7     -2887.838 7        45.481               
G19  25438119.142 7 133678330.308 7      2441.691 7        45.151               
G10  27354377.798 6 143748350.353 6       386.310 6        39.436               
G03  24398819.689 7 128216757.062 7       467.716 7        46.389               
> 2012 09 14 12 52 22.0000000  0  5                                             
G06  25432328.614 7 133647897.106 7      -794.290 7        43.741               
G16  25793624.837 7 135546520.025 7     -2888.882 7        44.863               
G19  25437653.154 7 133675890.433 7      2437.957 7        44.809               
G10  27354303.516 6 143747966.648 6       385.230 6        39.768               
G03  24398731.040 7 128216290.821 7       465.891 7        46.471               
> 2012 09 14 12 52 23.0000000  0  5                                             
G06  25432477.981 7 133648695.274 7      -799.635 7        43.612               
G16  25794171.844 7 135549408.497 7     -2893.603 7        45.269               
G19  25437189.203 7 133673450.992 7      2445.401 7        44.854               
G10  27354231.594 6 143747583.510 6       383.945 6        40.374               
G03  24398642.928 7 128215825.292 7       465.933 7        46.701               
> 2012 09 14 12 52 24.0000000  0  5                                             
G06  25432629.689 7 133649494.091 7      -799.784 7        43.566               
G16  25794722.049 7 135552297.141 7     -2889.508 7        45.037               
G19  25436727.235 7 133671011.967 7      2442.446 7        44.941               
G10  27354161.761 6 143747200.927 6       383.784 6        40.656               
G03  24398554.334 7 128215360.451 7       462.094 7        46.325               
> 2012 09 14 12 52 25.0000000  0  5                                             
G06  25432781.790 7 133650293.518 7      -798.093 7        43.577               
G16  25795271.665 7 135555185.974 7     -2889.271 7        44.642               
G19  25436261.872 7 133668573.377 7      2439.667 7        44.908               
G10  27354097.522 6 143746818.912 6       383.660 6        39.923               
G03  24398463.648 7 128214896.313 7       463.450 7        46.945               
> 2012 09 14 12 52 26.0000000  0  5                                             
G06  25432931.533 7 133651093.569 7      -796.253 7        44.088               
G16  25795821.691 7 135558074.976 7     -2887.736 7        44.750               
G19  25435798.671 7 133666135.222 7      2438.363 7        45.165               
G10  27354016.522 6 143746437.490 6       380.589 6        39.988               
G03  24398377.126 7 128214432.859 7       465.096 7        47.211               
> 2012 09 14 12 52 27.0000000  0  5                                             
G06  25433081.561 7 133651894.246 7      -798.452 7        42.924               
G16  25796370.395 7 135560964.168 7     -2890.612 7        45.173               
G19  25435331.897 7 133663697.477 7      2436.260 7        44.593               
G10  27353944.617 6 143746056.624 6       386.524 6        40.069               
G03  24398289.157 7 128213970.111 7       462.719 7        47.036               
> 2012 09 14 12 52 28.0000000  0  5                                             
G06  25433241.096 7 133652695.561 7      -802.179 7        43.279               
G16  25796918.366 7 135563853.533 7     -2887.620 7        44.980               
G19  25434869.732 7 133661260.176 7      2438.080 7        45.001               
G10  27353872.105 6 143745676.339 6       378.457 6        39.761               
G03  24398199.062 7 128213508.072 7       459.710 7        46.648               
> 2012 09 14 12 52 29.0000000  0  5                                             
G06  25433394.787 7 133653497.501 7      -801.480 7        43.747               
G16  25797469.358 7 135566743.067 7     -2889.010 7        45.027               
G19  25434405.012 7 133658823.299 7      2439.456 7        45.089               
G10  27353798.216 6 143745296.618 6       380.155 6        39.127               
G03  24398115.310 7 128213046.715 7       458.711 7        47.022               
> 2012 09 14 12 52 30.0000000  0  5                                             
G06  25433547.442 7 133654300.075 7      -799.144 7        43.976               
G16  25798018.884 7 135569632.775 7     -2888.635 7        44.762               
G19  25433944.170 7 133656386.834 7      2433.061 7        45.070               
G10  27353721.415 6 143744917.457 6       375.235 6        39.994               
G03  24398028.412 7 128212586.065 7       460.555 7        47.270               
> 2012 09 14 12 52 31.0000000  0  5                                             
G06  25433694.969 7 133655103.272 7      -805.817 7        43.409               
G16  25798567.373 7 135572522.668 7     -2889.197 7        44.903               
G19  25433480.791 7 133653950.791 7      2435.094 7        45.323               
G10  27353653.584 6 143744538.873 6       381.232 6        40.175               
G03  24397940.157 7 128212126.101 7       458.537 7        47.104               
> 2012 09 14 12 52 32.0000000  0  5                                             
G06  25433848.303 7 133655907.075 7      -802.306 7        43.613               
G16  25799123.457 7 135575412.742 7     -2893.055 7        44.826               
G19  25433018.662 7 133651515.190 7      2437.181 7        44.619               
G10  27353581.501 6 143744160.854 6       374.839 6        40.711               
G03  24397848.418 7 128211666.840 7       457.121 7        46.304               
> 2012 09 14 12 52 33.0000000  0  5                                             
G06  25434003.067 7 133656711.508 7      -798.686 7        44.326               
G16  25799670.839 7 135578302.976 7     -2888.199 7        44.675               
G19  25432558.678 7 133649080.010 7      2436.419 7        44.912               
G10  27353507.130 6 143743783.427 6       374.834 6        40.727               
G03  24397763.486 7 128211208.267 7       463.045 7        46.340               
> 2012 09 14 12 52 34.0000000  0  5                                             
G06  25434158.188 7 133657516.580 7      -807.583 7        44.086               
G16  25800221.741 7 135581193.398 7     -2891.927 7        44.635               
G19  25432093.190 7 133646645.256 7      2435.355 7        45.548               
G10  27353435.171 6 143743406.544 6       374.959 6        40.559               
G03  24397674.409 7 128210750.403 7       460.536 7        46.206               
> 2012 09 14 12 52 35.0000000  0  5                                             
G06  25434313.666 7 133658322.282 7      -806.092 7        43.567               
G16  25800767.765 7 135584083.993 7     -2885.631 7        44.317               
G19  25431628.077 7 133644210.947 7      2433.105 7        45.433               
G10  27353369.181 6 143743030.243 6       371.267 6        40.336               
G03  24397586.815 7 128210293.233 7       459.045 7        46.077               
> 2012 09 14 12 52 36.0000000  0  5                                             
G06  25434468.090 7 133659128.613 7      -808.964 7        43.535               
G16  25801318.756 7 135586974.757 7     -2891.549 7        44.666               
G19  25431162.911 7 133641777.061 7      2432.966 7        45.680               
G10  27353295.453 6 143742654.510 6       379.243 6        40.933               
G03  24397500.240 7 128209836.756 7       453.112 7        46.545               
> 2012 09 14 12 52 37.0000000  0  5                                             
G06  25434620.513 7 133659935.568 7      -805.150 7        44.386               
G16  25801868.818 7 135589865.713 7     -2888.168 7        44.804               
G19  25430698.638 7 133639343.591 7      2434.032 7        45.909               
G10  27353222.887 6 143742279.350 6       374.756 6        39.883               
G03  24397410.948 7 128209380.986 7       454.837 7        46.663               
> 2012 09 14 12 52 38.0000000  0  5                                             
G06  25434773.454 7 133660743.156 7      -805.253 7        44.352               
G16  25802418.666 7 135592756.845 7     -2892.620 7        44.432               
G19  25430232.739 7 133636910.571 7      2434.996 7        45.689               
G10  27353156.575 6 143741904.763 6       371.742 6        39.838               
G03  24397326.875 7 128208925.910 7       452.974 7        46.028               
> 2012 09 14 12 52 39.0000000  0  5                                             
G06  25434928.396 7 133661551.380 7      -804.927 7        44.816               
G16  25802968.639 7 135595648.160 7     -2891.775 7        44.745               
G19  25429766.571 7 133634477.970 7      2431.485 7        44.889               
G10  27353078.255 6 143741530.728 6       378.725 6        40.411               
G03  24397238.083 7 128208471.522 7       456.458 7        46.075               
