     3.02           OBSERVATION DATA    G                   RINEX VERSION / TYPE
G = GPS  R = GLONASS  E = GALILEO  S = GEO  M = MIXED       COMMENT             
GNSS-SDR            UNKNOWN USER        20210821 125111 UTC PGM / RUN BY / DATE 
GPS OBSERVATION DATA FILE GENERATED BY GNSS-SDR             COMMENT             
GNSS-SDR VERSION 0.0.14.git-next-f767f792b                  COMMENT             
See https://gnss-sdr.org                                    COMMENT             
DEFAULT MARKER NAME                                         MARKER NAME         
UNKNOWN USER        CTTC                                    OBSERVER / AGENCY   
GNSS-SDR            Software Receiver   0.0.14.gi           REC # / TYPE / VERS 
Antenna number      Antenna type                            ANT # / TYPE        
        0.0000        0.0000        0.0000                  APPROX POSITION XYZ 
        0.0000        0.0000        0.0000                  ANTENNA: DELTA H/E/N
G    4 C1C L1C D1C S1C                                      SYS / # / OBS TYPES 
DBHZ                                                        SIGNAL STRENGTH UNIT
  2012    09    14    12    45   18.1200000     GPS         TIME OF FIRST OBS   
                                                            END OF HEADER       
> 2012 09 14 12 45 19.0000000  0  5                                             
G06  25378871.591 8 133366867.059 8      -529.827 8        48.934               
G16  25564405.228 8 134341861.532 8     -2804.142 8        50.889               
G19  25641056.743 8 134744661.414 8      2612.142 8        48.130               
G10  27394951.148 7 143961449.854 7       628.234 7        43.375               
G03  24448045.666 8 128475336.609 8       755.871 8        50.323               
> 2012 09 14 12 45 20.0000000  0  5                                             
G06  25378974.982 8 133367398.284 8      -531.252 8        49.419               
G16  25564937.743 8 134344666.747 8     -2804.097 8        50.372               
G19  25640561.914 8 134742051.743 8      2607.533 8        48.084               
G10  27394833.677 7 143960824.288 7       624.975 7        43.109               
G03  24447901.838 8 128474579.610 8       754.507 8        49.834               
> 2012 09 14 12 45 21.0000000  0  5                                             
G06  25379076.031 8 133367930.142 8      -531.939 8        49.655               
G16  25565471.508 8 134347472.181 8     -2805.542 8        49.990               
G19  25640065.620 8 134739442.443 8      2608.982 8        48.582               
G10  27394714.848 7 143960199.307 7       625.496 7        42.498               
G03  24447758.725 8 128473823.289 8       757.419 8        50.166               
> 2012 09 14 12 45 22.0000000  0  5                                             
G06  25379176.240 8 133368462.626 8      -530.563 8        49.671               
G16  25566005.363 8 134350277.830 8     -2807.375 8        50.048               
G19  25639568.182 7 134736833.522 7      2609.729 7        47.306               
G10  27394595.304 7 143959574.896 7       627.674 7        42.972               
G03  24447612.074 8 128473067.650 8       755.968 8        50.899               
> 2012 09 14 12 45 23.0000000  0  5                                             
G06  25379275.735 8 133368995.745 8      -532.578 8        48.104               
G16  25566538.021 8 134353083.695 8     -2804.456 8        50.374               
G19  25639071.816 8 134734224.976 8      2605.364 8        48.376               
G10  27394478.655 7 143958951.061 7       623.322 7        43.586               
G03  24447469.140 8 128472312.697 8       754.572 8        51.549               
> 2012 09 14 12 45 24.0000000  0  5                                             
G06  25379377.428 7 133369529.503 7      -532.565 7        47.943               
G16  25567071.429 8 134355889.774 8     -2806.936 8        49.600               
G19  25638574.110 7 134731616.806 7      2608.731 7        47.781               
G10  27394361.416 7 143958327.795 7       626.976 7        42.435               
G03  24447324.812 8 128471558.419 8       753.839 8        50.804               
> 2012 09 14 12 45 25.0000000  0  5                                             
G06  25379478.584 8 133370063.897 8      -534.762 8        48.001               
G16  25567606.910 8 134358696.071 8     -2805.309 8        50.559               
G19  25638078.942 7 134729009.018 7      2609.073 7        47.559               
G10  27394244.803 7 143957705.108 7       619.248 7        42.321               
G03  24447179.394 8 128470804.824 8       752.030 8        50.075               
> 2012 09 14 12 45 26.0000000  0  5                                             
G06  25379579.330 8 133370598.924 8      -535.702 8        48.565               
G16  25568140.068 8 134361502.577 8     -2806.576 8        50.334               
G19  25637581.003 7 134726401.613 7      2608.570 7        47.586               
G10  27394121.918 7 143957082.990 7       622.157 7        43.036               
G03  24447035.834 8 128470051.905 8       752.025 8        50.490               
> 2012 09 14 12 45 27.0000000  0  5                                             
G06  25379680.111 8 133371134.592 8      -535.315 8        49.167               
G16  25568675.799 8 134364309.307 8     -2807.959 8        49.269               
G19  25637084.995 8 134723794.591 8      2608.459 8        48.110               
G10  27394007.896 7 143956461.442 7       622.299 7        43.463               
G03  24446892.882 8 128469299.670 8       752.505 8        50.602               
> 2012 09 14 12 45 28.0000000  0  5                                             
G06  25379782.822 8 133371670.886 8      -535.596 8        49.318               
G16  25569210.852 8 134367116.255 8     -2807.762 8        49.732               
G19  25636588.522 7 134721187.950 7      2607.270 7        47.815               
G10  27393882.437 7 143955840.486 7       619.757 7        42.697               
G03  24446749.286 8 128468548.109 8       752.361 8        50.772               
> 2012 09 14 12 45 29.0000000  0  5                                             
G06  25379883.943 8 133372207.811 8      -534.708 8        48.993               
G16  25569743.491 8 134369923.414 8     -2805.344 8        49.109               
G19  25636093.550 8 134718581.682 8      2606.596 8        48.599               
G10  27393766.986 7 143955220.082 7       624.546 7        42.052               
G03  24446604.869 8 128467797.231 8       750.793 8        51.098               
> 2012 09 14 12 45 30.0000000  0  5                                             
G06  25379987.119 8 133372745.369 8      -536.589 8        49.217               
G16  25570278.007 8 134372730.801 8     -2807.493 8        48.738               
G19  25635598.846 7 134715975.798 7      2604.810 7        47.827               
G10  27393645.387 6 143954600.276 6       621.039 6        41.674               
G03  24446462.757 8 128467047.038 8       750.503 8        49.779               
> 2012 09 14 12 45 31.0000000  0  5                                             
G06  25380090.938 8 133373283.577 8      -539.833 8        48.262               
G16  25570811.594 8 134375538.390 8     -2808.384 8        49.449               
G19  25635106.340 8 134713370.283 8      2605.439 8        48.170               
G10  27393530.686 6 143953981.030 6       618.163 6        41.995               
G03  24446320.162 8 128466297.526 8       747.691 8        50.448               
> 2012 09 14 12 45 32.0000000  0  5                                             
G06  25380189.789 8 133373822.403 8      -540.274 8        48.127               
G16  25571346.182 8 134378346.203 8     -2808.835 8        49.570               
G19  25634612.780 7 134710765.151 7      2605.884 7        47.917               
G10  27393410.999 7 143953362.364 7       623.184 7        42.162               
G03  24446177.031 8 128465548.690 8       750.298 8        51.096               
> 2012 09 14 12 45 33.0000000  0  5                                             
G06  25380291.714 8 133374361.865 8      -541.772 8        48.808               
G16  25571880.573 8 134381154.226 8     -2808.677 8        49.165               
G19  25634116.790 8 134708160.390 8      2607.189 8        48.743               
G10  27393292.456 7 143952744.275 7       621.292 7        42.609               
G03  24446036.152 8 128464800.540 8       748.337 8        51.605               
> 2012 09 14 12 45 34.0000000  0  5                                             
G06  25380394.461 8 133374901.963 8      -540.842 8        48.858               
G16  25572413.892 8 134383962.465 8     -2808.804 8        49.234               
G19  25633620.263 8 134705556.021 8      2603.063 8        49.232               
G10  27393176.611 7 143952126.743 7       621.587 7        42.775               
G03  24445894.307 8 128464053.071 8       747.491 8        50.443               
> 2012 09 14 12 45 35.0000000  0  5                                             
G06  25380498.709 7 133375442.690 7      -542.110 7        47.559               
G16  25572950.320 8 134386770.926 8     -2808.838 8        49.449               
G19  25633125.059 8 134702952.024 8      2601.914 8        48.143               
G10  27393056.906 7 143951509.802 7       615.760 7        42.011               
G03  24445752.928 8 128463306.285 8       748.581 8        49.295               
> 2012 09 14 12 45 36.0000000  0  5                                             
G06  25380602.939 8 133375984.052 8      -540.333 8        48.053               
G16  25573486.212 8 134389579.594 8     -2810.007 8        49.906               
G19  25632631.749 8 134700348.404 8      2605.327 8        48.423               
G10  27392942.491 6 143950893.435 6       614.480 6        41.391               
G03  24445611.262 8 128462560.173 8       745.345 8        51.479               
> 2012 09 14 12 45 37.0000000  0  5                                             
G06  25380702.630 8 133376526.041 8      -543.020 8        48.894               
G16  25574018.602 8 134392388.470 8     -2809.032 8        49.871               
G19  25632134.847 8 134697745.161 8      2603.440 8        48.505               
G10  27392825.735 6 143950277.638 6       616.563 6        41.236               
G03  24445469.596 8 128461814.752 8       743.739 8        52.200               
> 2012 09 14 12 45 38.0000000  0  5                                             
G06  25380807.361 8 133377068.663 8      -545.986 8        49.652               
G16  25574554.654 8 134395197.571 8     -2809.316 8        49.625               
G19  25631640.268 8 134695142.307 8      2602.941 8        48.597               
G10  27392710.640 7 143949662.396 7       620.103 7        42.270               
G03  24445327.984 8 128461070.011 8       743.461 8        51.292               
> 2012 09 14 12 45 39.0000000  0  5                                             
G06  25380910.483 8 133377611.923 8      -542.601 8        48.847               
G16  25575085.650 8 134398006.876 8     -2809.337 8        49.324               
G19  25631146.583 8 134692539.815 8      2600.659 8        48.682               
G10  27392593.902 7 143949047.744 7       615.901 7        42.090               
G03  24445184.836 8 128460325.950 8       744.078 8        49.649               
> 2012 09 14 12 45 40.0000000  0  5                                             
G06  25381012.658 8 133378155.813 8      -544.207 8        48.729               
G16  25575619.684 8 134400816.399 8     -2809.724 8        50.023               
G19  25630651.343 8 134689937.723 8      2600.709 8        48.453               
G10  27392480.988 7 143948433.668 7       610.173 7        42.757               
G03  24445042.241 8 128459582.567 8       743.983 8        50.389               
> 2012 09 14 12 45 41.0000000  0  5                                             
G06  25381116.262 7 133378700.331 7      -547.234 7        47.900               
G16  25576151.252 8 134403626.139 8     -2809.601 8        49.585               
G19  25630157.943 8 134687336.005 8      2600.731 8        48.858               
G10  27392364.732 6 143947820.150 6       614.319 6        41.707               
G03  24444900.772 8 128458839.865 8       743.106 8        49.962               
> 2012 09 14 12 45 42.0000000  0  5                                             
G06  25381222.315 8 133379245.488 8      -546.679 8        48.020               
G16  25576685.571 8 134406436.094 8     -2811.760 8        48.851               
G19  25629663.329 8 134684734.657 8      2601.961 8        48.174               
G10  27392249.244 7 143947207.230 7       613.135 7        42.860               
G03  24444758.391 8 128458097.845 8       740.589 8        49.781               
> 2012 09 14 12 45 43.0000000  0  5                                             
G06  25381325.830 8 133379791.279 8      -545.071 8        48.507               
G16  25577221.124 8 134409246.258 8     -2810.708 8        48.723               
G19  25629163.639 8 134682133.690 8      2599.459 8        48.514               
G10  27392134.186 7 143946594.865 7       612.313 7        43.660               
G03  24444616.350 8 128457356.502 8       741.905 8        50.289               
> 2012 09 14 12 45 44.0000000  0  5                                             
G06  25381429.953 7 133380337.710 7      -546.419 7        47.710               
G16  25577757.087 8 134412056.640 8     -2810.939 8        48.301               
G19  25628667.488 8 134679533.104 8      2599.311 8        48.052               
G10  27392014.570 7 143945983.084 7       611.128 7        42.424               
G03  24444475.632 8 128456615.843 8       740.768 8        49.857               
> 2012 09 14 12 45 45.0000000  0  5                                             
G06  25381534.505 8 133380884.773 8      -549.052 8        48.277               
G16  25578290.853 8 134414867.238 8     -2812.093 8        48.235               
G19  25628169.139 8 134676932.896 8      2601.661 8        48.054               
G10  27391898.958 7 143945371.863 7       615.055 7        42.795               
G03  24444337.755 8 128455875.863 8       740.676 8        50.425               
> 2012 09 14 12 45 46.0000000  0  5                                             
G06  25381638.038 7 133381432.475 7      -548.063 7        47.207               
G16  25578827.227 8 134417678.042 8     -2811.069 8        48.204               
G19  25627675.025 7 134674333.074 7      2600.774 7        47.784               
G10  27391782.380 7 143944761.219 7       609.885 7        42.314               
G03  24444197.715 8 128455136.570 8       739.299 8        50.478               
> 2012 09 14 12 45 47.0000000  0  5                                             
G06  25381742.018 7 133381980.807 7      -547.171 7        46.614               
G16  25579361.868 8 134420489.068 8     -2811.307 8        49.326               
G19  25627179.677 8 134671733.631 8      2598.378 8        48.039               
G10  27391665.231 7 143944151.166 7       607.324 7        43.596               
G03  24444057.247 8 128454397.958 8       738.401 8        50.412               
> 2012 09 14 12 45 48.0000000  0  5                                             
G06  25381847.284 7 133382529.776 7      -551.522 7        47.274               
G16  25579896.849 8 134423300.308 8     -2809.246 8        49.213               
G19  25626686.957 8 134669134.571 8      2598.424 8        48.429               
G10  27391550.655 7 143943541.652 7       611.214 7        42.517               
G03  24443916.224 8 128453660.021 8       735.586 8        50.423               
> 2012 09 14 12 45 49.0000000  0  5                                             
G06  25381950.406 7 133383079.383 7      -550.747 7        47.788               
G16  25580431.633 8 134426111.764 8     -2811.530 8        48.496               
G19  25626191.574 8 134666535.891 8      2600.723 8        48.046               
G10  27391428.663 7 143942932.750 7       607.414 7        42.235               
G03  24443776.256 8 128452922.766 8       735.321 8        49.649               
> 2012 09 14 12 45 50.0000000  0  5                                             
G06  25382058.299 8 133383629.626 8      -550.611 8        48.178               
G16  25580967.186 8 134428923.426 8     -2813.069 8        48.457               
G19  25625697.013 7 134663937.587 7      2600.242 7        47.311               
G10  27391311.174 6 143942324.396 6       610.048 6        41.482               
G03  24443636.342 8 128452186.191 8       738.249 8        50.910               
> 2012 09 14 12 45 51.0000000  0  5                                             
G06  25382163.083 8 133384180.484 8      -550.820 8        49.140               
G16  25581502.845 8 134431735.312 8     -2811.710 8        48.704               
G19  25625200.647 8 134661339.670 8      2594.952 8        48.556               
G10  27391197.652 6 143941716.639 6       604.935 6        40.615               
G03  24443495.230 8 128451450.295 8       734.615 8        50.707               
> 2012 09 14 12 45 52.0000000  0  5                                             
G06  25382266.902 8 133384731.983 8      -551.824 8        49.877               
G16  25582036.468 8 134434547.396 8     -2812.293 8        49.302               
G19  25624705.747 8 134658742.128 8      2598.731 8        48.621               
G10  27391082.076 6 143941109.426 6       610.487 6        40.179               
G03  24443354.476 8 128450715.079 8       734.430 8        51.926               
> 2012 09 14 12 45 53.0000000  0  5                                             
G06  25382370.561 8 133385284.112 8      -553.955 8        49.460               
G16  25582572.789 8 134437359.698 8     -2812.096 8        48.490               
G19  25624214.045 8 134656144.967 8      2597.093 8        48.481               
G10  27390967.499 6 143940502.807 6       610.626 6        41.369               
G03  24443215.491 8 128449980.546 8       736.156 8        51.923               
> 2012 09 14 12 45 54.0000000  0  5                                             
G06  25382476.292 8 133385836.882 8      -551.809 8        49.769               
G16  25583108.895 8 134440172.216 8     -2811.750 8        49.418               
G19  25623718.573 8 134653548.194 8      2597.108 8        48.803               
G10  27390852.852 6 143939896.759 6       608.139 6        41.455               
G03  24443076.505 8 128449246.696 8       734.695 8        50.742               
> 2012 09 14 12 45 55.0000000  0  5                                             
G06  25382580.021 8 133386390.287 8      -553.742 8        48.982               
G16  25583644.805 8 134442984.944 8     -2811.141 8        49.813               
G19  25623225.656 8 134650951.804 8      2594.064 8        48.869               
G10  27390741.492 6 143939291.289 6       599.608 6        41.651               
G03  24442935.394 8 128448513.535 8       731.703 8        51.032               
> 2012 09 14 12 45 56.0000000  0  5                                             
G06  25382686.199 8 133386944.332 8      -553.547 8        48.085               
G16  25584180.751 8 134445797.887 8     -2814.835 8        49.462               
G19  25622731.899 8 134648355.800 8      2594.704 8        48.100               
G10  27390625.129 6 143938686.386 6       603.180 6        41.256               
G03  24442798.428 8 128447781.051 8       733.595 8        50.107               
> 2012 09 14 12 45 57.0000000  0  5                                             
G06  25382790.054 8 133387499.006 8      -555.380 8        48.012               
G16  25584715.177 8 134448611.041 8     -2813.241 8        49.234               
G19  25622237.088 8 134645760.184 8      2594.901 8        49.107               
G10  27390507.265 6 143938082.050 6       606.710 6        40.857               
G03  24442659.496 8 128447049.245 8       731.710 8        50.957               
> 2012 09 14 12 45 58.0000000  0  5                                             
G06  25382896.625 7 133388054.311 7      -554.300 7        47.961               
G16  25585250.730 8 134451424.420 8     -2815.321 8        49.749               
G19  25621745.386 8 134643164.937 8      2595.659 8        48.949               
G10  27390393.368 6 143937478.301 6       604.151 6        41.888               
G03  24442519.724 8 128446318.132 8       729.822 8        49.891               
> 2012 09 14 12 45 59.0000000  0  5                                             
G06  25383002.570 7 133388610.253 7      -557.176 7        47.301               
G16  25585786.979 8 134454238.003 8     -2814.505 8        49.389               
G19  25621252.898 8 134640570.080 8      2592.358 8        48.341               
G10  27390277.362 6 143936875.117 6       601.908 6        41.942               
G03  24442383.348 8 128445587.690 8       729.870 8        50.265               
> 2012 09 14 12 46 00.0000000  0  5                                             
G06  25383105.370 7 133389166.810 7      -557.155 7        47.157               
G16  25586322.746 8 134457051.804 8     -2815.710 8        49.188               
G19  25620762.125 8 134637975.600 8      2591.565 8        49.060               
G10  27390162.196 7 143936272.522 7       603.263 7        42.322               
G03  24442243.880 8 128444857.938 8       728.361 8        50.643               
> 2012 09 14 12 46 01.0000000  0  5                                             
G06  25383212.477 8 133389723.998 8      -555.362 8        48.178               
G16  25586858.674 8 134459865.813 8     -2813.967 8        49.334               
G19  25620269.708 8 134635381.491 8      2596.991 8        49.529               
G10  27390047.763 7 143935670.482 7       601.095 7        42.272               
G03  24442107.039 8 128444128.865 8       730.153 8        50.950               
> 2012 09 14 12 46 02.0000000  0  5                                             
G06  25383319.584 8 133390281.824 8      -556.041 8        49.151               
G16  25587394.780 8 134462680.027 8     -2812.362 8        48.340               
G19  25619778.882 8 134632787.768 8      2594.119 8        49.764               
G10  27389932.633 7 143935069.016 7       602.331 7        42.977               
G03  24441966.178 8 128443400.473 8       727.661 8        51.742               
> 2012 09 14 12 46 03.0000000  0  5                                             
G06  25383426.655 8 133390840.285 8      -556.260 8        49.821               
G16  25587930.708 8 134465494.467 8     -2813.822 8        49.649               
G19  25619283.142 8 134630194.439 8      2594.085 8        49.954               
G10  27389816.841 7 143934468.139 7       601.562 7        42.925               
G03  24441828.157 8 128442672.758 8       724.990 8        50.664               
> 2012 09 14 12 46 04.0000000  0  5                                             
G06  25383533.334 8 133391399.379 8      -560.165 8        48.671               
G16  25588465.153 8 134468309.109 8     -2815.517 8        49.408               
G19  25618789.188 8 134627601.477 8      2590.955 8        49.808               
G10  27389707.215 7 143933867.826 7       597.178 7        43.003               
G03  24441688.636 8 128441945.726 8       729.431 8        51.398               
> 2012 09 14 12 46 05.0000000  0  5                                             
G06  25383641.638 7 133391959.114 7      -559.911 7        47.604               
G16  25588999.955 8 134471123.965 8     -2810.909 8        50.069               
G19  25618293.680 8 134625008.909 8      2591.619 8        49.340               
G10  27389593.586 7 143933268.097 7       600.496 7        43.260               
G03  24441553.028 8 128441219.382 8       727.851 8        51.185               
> 2012 09 14 12 46 06.0000000  0  5                                             
G06  25383748.923 8 133392519.468 8      -558.452 8        48.358               
G16  25589537.491 8 134473939.038 8     -2813.365 8        49.120               
G19  25617799.870 8 134622416.716 8      2588.565 8        48.704               
G10  27389479.778 7 143932668.930 7       597.330 7        43.086               
G03  24441414.633 8 128440493.722 8       723.943 8        50.377               
> 2012 09 14 12 46 07.0000000  0  5                                             
G06  25383856.888 8 133393080.462 8      -559.944 8        48.476               
G16  25590072.400 8 134476754.319 8     -2814.818 8        49.244               
G19  25617307.275 8 134619824.901 8      2591.455 8        49.060               
G10  27389367.954 7 143932070.347 7       600.462 7        43.267               
G03  24441275.647 8 128439768.743 8       726.345 8        50.891               
> 2012 09 14 12 46 08.0000000  0  5                                             
G06  25383961.172 8 133393642.090 8      -562.275 8        50.242               
G16  25590606.416 8 134479569.813 8     -2815.597 8        49.256               
G19  25616814.501 8 134617233.487 8      2590.575 8        49.441               
G10  27389247.374 7 143931472.318 7       597.127 7        43.453               
G03  24441137.180 8 128439044.446 8       724.152 8        50.166               
> 2012 09 14 12 46 09.0000000  0  5                                             
G06  25384067.796 8 133394204.359 8      -565.105 8        49.080               
G16  25591143.415 8 134482385.519 8     -2815.764 8        49.415               
G19  25616321.155 8 134614642.450 8      2591.748 8        48.992               
G10  27389131.672 7 143930874.887 7       598.092 7        42.939               
G03  24441000.250 8 128438320.831 8       721.163 8        50.380               
> 2012 09 14 12 46 10.0000000  0  5                                             
G06  25384175.671 8 133394767.248 8      -565.213 8        48.601               
G16  25591676.556 8 134485201.437 8     -2816.489 8        49.965               
G19  25615826.665 8 134612051.803 8      2590.404 8        48.532               
G10  27389017.757 7 143930278.024 7       598.903 7        43.072               
G03  24440862.283 8 128437597.898 8       721.758 8        50.625               
> 2012 09 14 12 46 11.0000000  0  5                                             
G06  25384283.296 8 133395330.771 8      -564.902 8        49.761               
G16  25592213.109 8 134488017.565 8     -2813.378 8        49.878               
G19  25615332.211 7 134609461.525 7      2589.889 7        47.762               
G10  27388903.234 7 143929681.732 7       598.543 7        42.236               
G03  24440724.960 8 128436875.641 8       721.019 8        51.403               
> 2012 09 14 12 46 12.0000000  0  5                                             
G06  25384390.475 8 133395894.937 8      -565.636 8        48.709               
G16  25592749.733 8 134490833.906 8     -2814.560 8        49.868               
G19  25614837.793 8 134606871.639 8      2592.352 8        48.401               
G10  27388793.804 7 143929086.024 7       593.349 7        42.448               
G03  24440588.333 8 128436154.068 8       722.095 8        51.713               
> 2012 09 14 12 46 13.0000000  0  5                                             
G06  25384497.618 8 133396459.731 8      -566.330 8        49.102               
G16  25593285.232 8 134493650.453 8     -2814.128 8        48.871               
G19  25614343.858 8 134604282.124 8      2587.057 8        48.081               
G10  27388681.408 7 143928490.880 7       595.447 7        42.469               
G03  24440450.688 8 128435433.174 8       721.762 8        51.344               
> 2012 09 14 12 46 14.0000000  0  5                                             
G06  25384605.671 8 133397025.157 8      -564.499 8        48.787               
G16  25593820.499 8 134496467.222 8     -2816.269 8        49.640               
G19  25613853.389 8 134601693.000 8      2590.202 8        48.401               
G10  27388567.922 7 143927896.311 7       598.076 7        42.900               
G03  24440313.865 8 128434712.959 8       720.469 8        51.914               
> 2012 09 14 12 46 15.0000000  0  5                                             
G06  25384713.386 8 133397591.222 8      -569.197 8        48.689               
G16  25594356.319 8 134499284.191 8     -2815.349 8        49.597               
G19  25613361.133 8 134599104.262 8      2589.410 8        48.513               
G10  27388458.760 7 143927302.306 7       594.883 7        42.504               
G03  24440177.346 8 128433993.430 8       717.402 8        50.971               
> 2012 09 14 12 46 16.0000000  0  5                                             
G06  25384818.366 8 133398157.923 8      -567.984 8        48.336               
G16  25594892.265 8 134502101.382 8     -2816.214 8        48.810               
G19  25612869.056 8 134596515.911 8      2590.491 8        48.314               
G10  27388343.809 7 143926708.877 7       592.341 7        42.025               
G03  24440039.093 8 128433274.584 8       718.041 8        50.997               
> 2012 09 14 12 46 17.0000000  0  5                                             
G06  25384927.189 8 133398725.247 8      -565.979 8        48.943               
G16  25595428.353 8 134504918.777 8     -2816.302 8        48.811               
G19  25612377.461 8 134593927.951 8      2585.958 8        48.669               
G10  27388232.288 7 143926116.035 7       590.010 7        42.578               
G03  24439901.126 8 128432556.426 8       717.201 8        50.556               
> 2012 09 14 12 46 18.0000000  0  5                                             
G06  25385036.101 8 133399293.209 8      -567.133 8        48.075               
G16  25595964.085 8 134507736.384 8     -2817.034 8        48.414               
G19  25611881.792 8 134591340.363 8      2587.492 8        49.780               
G10  27388118.319 6 143925523.753 6       591.348 6        41.847               
G03  24439763.749 8 128431838.942 8       718.678 8        50.831               
> 2012 09 14 12 46 19.0000000  0  5                                             
G06  25385143.815 8 133399861.809 8      -565.369 8        48.787               
G16  25596500.209 8 134510554.199 8     -2814.740 8        49.297               
G19  25611387.589 8 134588753.157 8      2585.878 8        49.058               
G10  27388003.725 6 143924932.054 6       589.325 6        39.983               
G03  24439629.106 8 128431122.149 8       715.349 8        49.887               
> 2012 09 14 12 46 20.0000000  0  5                                             
G06  25385254.049 8 133400431.043 8      -568.854 8        49.552               
G16  25597036.566 8 134513372.231 8     -2818.418 8        49.430               
G19  25610895.172 8 134586166.339 8      2588.545 8        48.803               
G10  27387891.025 6 143924340.929 6       590.695 6        40.515               
G03  24439492.587 8 128430406.042 8       716.662 8        50.134               
> 2012 09 14 12 46 21.0000000  0  5                                             
G06  25385360.763 8 133401000.914 8      -571.287 8        49.323               
G16  25597574.584 8 134516190.469 8     -2817.764 8        49.926               
G19  25610402.059 8 134583579.912 8      2588.208 8        48.091               
G10  27387778.397 6 143923750.374 6       585.036 6        40.637               
G03  24439355.406 8 128429690.616 8       714.114 8        50.586               
> 2012 09 14 12 46 22.0000000  0  5                                             
G06  25385468.120 8 133401571.416 8      -567.852 8        49.127               
G16  25598111.316 8 134519008.926 8     -2820.944 8        50.056               
G19  25609908.784 7 134580993.865 7      2581.720 7        47.688               
G10  27387659.264 6 143923160.410 6       586.579 6        40.786               
G03  24439221.138 8 128428975.869 8       715.362 8        51.508               
> 2012 09 14 12 46 23.0000000  0  5                                             
G06  25385578.908 8 133402142.553 8      -573.965 8        49.661               
G16  25598649.138 8 134521827.584 8     -2821.275 8        49.494               
G19  25609418.280 8 134578408.203 8      2585.189 8        48.932               
G10  27387552.264 6 143922571.001 6       587.980 6        41.807               
G03  24439085.030 8 128428261.800 8       714.305 8        50.340               
> 2012 09 14 12 46 24.0000000  0  5                                             
G06  25385687.498 8 133402714.323 8      -571.231 8        49.067               
G16  25599185.655 8 134524646.453 8     -2817.657 8        49.549               
G19  25608927.489 8 134575822.922 8      2585.532 8        49.297               
G10  27387438.921 6 143921982.176 6       587.798 6        41.459               
G03  24438948.582 8 128427548.413 8       712.651 8        49.339               
> 2012 09 14 12 46 25.0000000  0  5                                             
G06  25385796.570 7 133403286.715 7      -574.256 7        47.638               
G16  25599719.957 8 134527465.525 8     -2817.940 8        49.719               
G19  25608434.626 8 134573238.019 8      2584.897 8        48.277               
G10  27387330.581 7 143921393.921 7       587.713 7        42.036               
G03  24438811.187 8 128426835.710 8       714.402 8        50.759               
> 2012 09 14 12 46 26.0000000  0  5                                             
G06  25385907.591 8 133403859.740 8      -572.439 8        48.176               
G16  25600257.636 8 134530284.811 8     -2818.283 8        50.185               
G19  25607940.994 7 134570653.503 7      2586.300 7        47.623               
G10  27387219.811 7 143920806.227 7       589.112 7        42.979               
G03  24438676.455 8 128426123.688 8       711.313 8        51.069               
> 2012 09 14 12 46 27.0000000  0  5                                             
G06  25386018.915 8 133404433.397 8      -573.715 8        48.582               
G16  25600793.546 8 134533104.313 8     -2821.313 8        49.933               
G19  25607448.631 7 134568069.384 7      2582.411 7        47.351               
G10  27387112.472 7 143920219.116 7       587.589 7        42.223               
G03  24438540.007 8 128425412.350 8       710.504 8        50.976               
> 2012 09 14 12 46 28.0000000  0  5                                             
G06  25386128.130 8 133405007.692 8      -573.877 8        49.264               
G16  25601331.796 8 134535924.022 8     -2821.845 8        50.058               
G19  25606955.696 7 134565485.640 7      2584.709 7        47.923               
G10  27386996.038 7 143919632.567 7       584.322 7        42.219               
G03  24438405.382 8 128424701.691 8       711.013 8        51.684               
> 2012 09 14 12 46 29.0000000  0  5                                             
G06  25386237.310 8 133405582.616 8      -572.406 8        48.662               
G16  25601867.849 8 134538743.940 8     -2821.477 8        49.997               
G19  25606465.191 8 134562902.284 8      2583.606 8        48.124               
G10  27386880.782 6 143919046.614 6       581.730 6        41.843               
G03  24438270.292 8 128423991.724 8       708.614 8        52.086               
> 2012 09 14 12 46 30.0000000  0  5                                             
G06  25386344.488 8 133406158.175 8      -575.711 8        48.212               
G16  25602405.993 8 134541564.077 8     -2819.049 8        51.124               
G19  25605972.935 8 134560319.318 8      2586.116 8        49.406               
G10  27386774.783 7 143918461.228 7       590.107 7        42.655               
G03  24438136.828 8 128423282.433 8       711.044 8        50.901               
> 2012 09 14 12 46 31.0000000  0  5                                             
G06  25386451.863 8 133406734.381 8      -577.071 8        48.277               
G16  25602942.581 8 134544384.427 8     -2821.488 8        50.418               
G19  25605481.484 8 134557736.735 8      2579.902 8        48.189               
G10  27386667.194 7 143917876.406 7       585.263 7        42.247               
G03  24438002.346 8 128422573.835 8       709.875 8        51.205               
> 2012 09 14 12 46 32.0000000  0  5                                             
G06  25386561.275 7 133407311.205 7      -577.430 7        47.721               
G16  25603480.100 8 134547204.981 8     -2820.252 8        49.627               
G19  25604993.070 8 134555154.537 8      2583.004 8        48.080               
G10  27386553.243 6 143917292.157 6       579.716 6        41.332               
G03  24437868.418 8 128421865.907 8       708.613 8        51.132               
> 2012 09 14 12 46 33.0000000  0  5                                             
G06  25386671.956 7 133407888.667 7      -576.352 7        47.659               
G16  25604016.867 8 134550025.744 8     -2821.157 8        50.269               
G19  25604502.154 8 134552572.735 8      2584.789 8        48.064               
G10  27386445.707 7 143916708.468 7       585.659 7        42.778               
G03  24437735.168 8 128421158.683 8       706.293 8        51.231               
> 2012 09 14 12 46 34.0000000  0  5                                             
G06  25386781.189 7 133408466.769 7      -579.562 7        47.508               
G16  25604553.099 8 134552846.719 8     -2820.983 8        50.090               
G19  25604010.041 7 134549991.316 7      2583.443 7        47.290               
G10  27386331.846 7 143916125.379 7       588.382 7        42.433               
G03  24437600.811 8 128420452.129 8       706.764 8        52.063               
> 2012 09 14 12 46 35.0000000  0  5                                             
G06  25386892.728 7 133409045.515 7      -576.940 7        47.540               
G16  25605090.492 8 134555667.897 8     -2821.112 8        49.883               
G19  25603518.768 7 134547410.281 7      2580.030 7        47.273               
G10  27386215.358 7 143915542.860 7       583.185 7        42.060               
G03  24437467.044 8 128419746.262 8       704.035 8        51.724               
> 2012 09 14 12 46 36.0000000  0  5                                             
G06  25387003.337 7 133409624.888 7      -580.775 7        46.764               
G16  25605627.277 8 134558489.287 8     -2821.163 8        49.559               
G19  25603030.497 7 134544829.630 7      2581.091 7        47.526               
G10  27386105.910 7 143914960.894 7       578.868 7        42.633               
G03  24437331.865 8 128419041.072 8       703.781 8        51.269               
> 2012 09 14 12 46 37.0000000  0  5                                             
G06  25387113.303 7 133410204.897 7      -579.665 7        46.247               
G16  25606163.312 8 134561310.881 8     -2823.428 8        49.770               
G19  25602540.493 8 134542249.366 8      2579.621 8        48.504               
G10  27385996.980 7 143914379.519 7       581.478 7        42.445               
G03  24437198.151 8 128418336.565 8       705.619 8        50.634               
> 2012 09 14 12 46 38.0000000  0  5                                             
G06  25387222.215 7 133410785.531 7      -582.243 7        45.853               
G16  25606700.330 8 134564132.685 8     -2820.283 8        50.062               
G19  25602050.578 8 134539669.482 8      2580.871 8        48.941               
G10  27385890.285 7 143913798.711 7       577.978 7        42.989               
G03  24437065.312 8 128417632.736 8       704.708 8        50.819               
> 2012 09 14 12 46 39.0000000  0  5                                             
G06  25387333.110 7 133411366.783 7      -579.093 7        46.449               
G16  25607236.472 8 134566954.690 8     -2821.549 8        49.637               
G19  25601559.591 8 134537089.999 8      2577.946 8        48.557               
G10  27385781.069 7 143913218.474 7       582.504 7        42.057               
G03  24436930.008 8 128416929.593 8       704.025 8        50.724               
> 2012 09 14 12 46 40.0000000  0  5                                             
G06  25387446.525 7 133411948.677 7      -583.688 7        46.957               
G16  25607774.187 8 134569776.917 8     -2821.484 8        50.405               
G19  25601068.871 8 134534510.894 8      2578.897 8        49.066               
G10  27385669.888 7 143912638.819 7       578.353 7        42.666               
G03  24436796.795 8 128416227.135 8       701.997 8        51.869               
> 2012 09 14 12 46 41.0000000  0  5                                             
G06  25387556.633 7 133412531.200 7      -584.738 7        46.947               
G16  25608311.651 8 134572599.347 8     -2821.979 8        49.428               
G19  25600580.297 8 134531932.171 8      2579.434 8        48.085               
G10  27385563.121 7 143912059.728 7       579.580 7        42.866               
G03  24436663.563 8 128415525.366 8       701.054 8        51.343               
> 2012 09 14 12 46 42.0000000  0  5                                             
G06  25387666.313 7 133413114.364 7      -584.234 7        47.102               
G16  25608849.419 8 134575421.988 8     -2821.660 8        49.536               
G19  25600094.831 8 134529353.848 8      2577.104 8        49.634               
G10  27385446.561 7 143911481.228 7       578.137 7        43.630               
G03  24436531.189 8 128414824.282 8       700.400 8        51.129               
> 2012 09 14 12 46 43.0000000  0  5                                             
G06  25387776.780 7 133413698.158 7      -582.896 7        47.382               
G16  25609386.669 8 134578244.836 8     -2821.339 8        50.030               
G19  25599602.647 8 134526775.901 8      2577.897 8        49.448               
G10  27385333.861 7 143910903.292 7       578.989 7        44.013               
G03  24436396.761 8 128414123.871 8       700.401 8        51.277               
> 2012 09 14 12 46 44.0000000  0  5                                             
G06  25387887.711 7 133414282.581 7      -582.965 7        46.913               
G16  25609924.473 8 134581067.894 8     -2822.401 8        51.013               
G19  25599112.374 8 134524198.345 8      2577.810 8        49.063               
G10  27385223.180 7 143910325.937 7       574.927 7        44.085               
G03  24436264.941 8 128413424.153 8       699.853 8        51.641               
> 2012 09 14 12 46 45.0000000  0  5                                             
G06  25387999.803 7 133414867.644 7      -586.299 7        47.750               
G16  25610460.812 8 134583891.162 8     -2821.355 8        49.938               
G19  25598621.137 8 134521621.177 8      2578.018 8        49.361               
G10  27385107.782 7 143909749.159 7       574.578 7        43.528               
G03  24436131.120 8 128412725.116 8       697.478 8        51.796               
> 2012 09 14 12 46 46.0000000  0  5                                             
G06  25388111.788 8 133415453.340 8      -585.305 8        49.057               
G16  25610999.813 8 134586714.646 8     -2823.309 8        49.639               
G19  25598131.240 8 134519044.400 8      2572.751 8        49.314               
G10  27384999.335 7 143909172.943 7       577.990 7        42.595               
G03  24436000.033 8 128412026.754 8       698.317 8        50.921               
> 2012 09 14 12 46 47.0000000  0  5                                             
G06  25388222.648 8 133416039.671 8      -587.712 8        48.408               
G16  25611537.296 8 134589538.328 8     -2822.892 8        50.270               
G19  25597639.913 8 134516468.015 8      2576.714 8        48.648               
G10  27384890.870 7 143908597.314 7       577.647 7        42.444               
G03  24435865.461 8 128411329.081 8       697.251 8        50.788               
> 2012 09 14 12 46 48.0000000  0  5                                             
G06  25388337.510 8 133416626.630 8      -586.612 8        49.171               
G16  25612074.796 8 134592362.220 8     -2821.285 8        49.165               
G19  25597149.551 8 134513892.011 8      2576.792 8        48.295               
G10  27384782.101 6 143908022.258 6       573.520 6        41.433               
G03  24435733.945 8 128410632.091 8       697.275 8        51.192               
> 2012 09 14 12 46 49.0000000  0  5                                             
G06  25388447.905 8 133417214.225 8      -588.323 8        49.520               
G16  25612612.296 8 134595186.324 8     -2824.179 8        49.671               
G19  25596656.742 8 134511316.395 8      2571.937 8        48.422               
G10  27384675.370 6 143907447.777 6       575.216 6        40.835               
G03  24435600.624 8 128409935.786 8       696.286 8        51.907               
> 2012 09 14 12 46 50.0000000  0  5                                             
G06  25388558.907 7 133417802.447 7      -588.112 7        47.846               
G16  25613150.618 8 134598010.629 8     -2822.505 8        50.735               
G19  25596167.273 8 134508741.173 8      2576.253 8        48.245               
G10  27384554.754 7 143906873.856 7       573.518 7        42.028               
G03  24435470.127 8 128409240.163 8       695.058 8        51.062               
> 2012 09 14 12 46 51.0000000  0  5                                             
G06  25388671.571 8 133418391.297 8      -590.497 8        48.637               
G16  25613686.600 8 134600835.146 8     -2823.653 8        49.932               
G19  25595676.161 8 134506166.336 8      2573.315 8        48.717               
G10  27384452.972 6 143906300.505 6       579.418 6        41.145               
G03  24435336.198 8 128408545.225 8       693.014 8        50.367               
> 2012 09 14 12 46 52.0000000  0  5                                             
G06  25388783.449 7 133418980.783 7      -590.060 7        47.807               
G16  25614224.618 8 134603659.868 8     -2822.679 8        50.034               
G19  25595184.852 8 134503591.887 8      2577.068 8        48.402               
G10  27384350.547 7 143905727.749 7       571.574 7        42.328               
G03  24435203.003 8 128407850.963 8       696.244 8        49.332               
> 2012 09 14 12 46 53.0000000  0  5                                             
G06  25388896.631 8 133419570.906 8      -592.189 8        48.314               
G16  25614761.064 8 134606484.801 8     -2825.890 8        49.564               
G19  25594697.475 8 134501017.831 8      2573.008 8        48.947               
G10  27384237.150 7 143905155.548 7       572.706 7        42.194               
G03  24435069.003 8 128407157.395 8       693.631 8        50.045               
> 2012 09 14 12 46 54.0000000  0  5                                             
G06  25389009.242 8 133420161.649 8      -589.902 8        49.127               
G16  25615298.439 8 134609309.941 8     -2826.351 8        49.759               
G19  25594205.683 8 134498444.156 8      2571.295 8        49.926               
G10  27384129.417 7 143904583.922 7       572.877 7        42.756               
G03  24434937.147 8 128406464.503 8       691.617 8        50.119               
> 2012 09 14 12 46 55.0000000  0  5                                             
G06  25389122.085 8 133420753.016 8      -590.021 8        49.251               
G16  25615834.706 8 134612135.287 8     -2827.485 8        50.816               
G19  25593717.323 8 134495870.865 8      2574.757 8        48.531               
G10  27384026.796 7 143904012.866 7       570.278 7        42.201               
G03  24434803.719 8 128405772.290 8       693.559 8        50.804               
> 2012 09 14 12 46 56.0000000  0  5                                             
G06  25389234.964 8 133421345.038 8      -591.311 8        49.205               
G16  25616370.973 8 134614960.842 8     -2827.193 8        50.435               
G19  25593223.638 8 134493297.959 8      2574.156 8        48.943               
G10  27383920.618 6 143903442.396 6       569.520 6        41.768               
G03  24434670.685 8 128405080.773 8       689.632 8        51.510               
> 2012 09 14 12 46 57.0000000  0  5                                             
G06  25389345.823 8 133421937.711 8      -594.094 8        49.007               
G16  25616909.671 8 134617786.615 8     -2826.048 8        49.558               
G19  25592737.439 8 134490725.441 8      2572.277 8        49.928               
G10  27383807.489 6 143902872.504 6       567.675 6        41.093               
G03  24434541.170 8 128404389.943 8       690.706 8        51.267               
> 2012 09 14 12 46 58.0000000  0  5                                             
G06  25389457.504 8 133422530.998 8      -595.860 8        49.191               