     3.02           OBSERVATION DATA    G                   RINEX VERSION / TYPE
G = GPS  R = GLONASS  E = GALILEO  S = GEO  M = MIXED       COMMENT             
GNSS-SDR            UNKNOWN USER        20210821 203918 UTC PGM / RUN BY / DATE 
GPS OBSERVATION DATA FILE GENERATED BY GNSS-SDR             COMMENT             
GNSS-SDR VERSION 0.0.14.git-next-f767f792b                  COMMENT             
See https://gnss-sdr.org                                    COMMENT             
DEFAULT MARKER NAME                                         MARKER NAME         
UNKNOWN USER        CTTC                                    OBSERVER / AGENCY   
GNSS-SDR            Software Receiver   0.0.14.gi           REC # / TYPE / VERS 
Antenna number      Antenna type                            ANT # / TYPE        
        0.0000        0.0000        0.0000                  APPROX POSITION XYZ 
        0.0000        0.0000        0.0000                  ANTENNA: DELTA H/E/N
G    4 C1C L1C D1C S1C                                      SYS / # / OBS TYPES 
DBHZ                                                        SIGNAL STRENGTH UNIT
  2012    09    14    12    45   18.1200000     GPS         TIME OF FIRST OBS   
                                                            END OF HEADER       
> 2012 09 14 12 45 19.0000000  0  5                                             
G06  25378871.591 8 133366867.059 8      -529.827 8        48.935               
G16  25564405.246 8 134341861.532 8     -2804.142 8        50.889               
G19  25641056.743 8 134744661.414 8      2612.142 8        48.130               
G10  27394951.166 7 143961449.854 7       628.233 7        43.375               
G03  24448045.666 8 128475336.609 8       755.870 8        50.323               
> 2012 09 14 12 45 20.0000000  0  5                                             
G06  25378974.982 8 133367398.284 8      -531.249 8        49.418               
G16  25564937.743 8 134344666.747 8     -2804.098 8        50.372               
G19  25640561.914 8 134742051.743 8      2607.532 8        48.083               
G10  27394833.677 7 143960824.288 7       624.975 7        43.109               
G03  24447901.838 8 128474579.610 8       754.507 8        49.833               
> 2012 09 14 12 45 21.0000000  0  5                                             
G06  25379076.031 8 133367930.142 8      -531.939 8        49.654               
G16  25565471.508 8 134347472.181 8     -2805.542 8        49.989               
G19  25640065.620 8 134739442.443 8      2608.981 8        48.583               
G10  27394714.830 7 143960199.307 7       625.500 7        42.497               
G03  24447758.725 8 128473823.289 8       757.419 8        50.165               
> 2012 09 14 12 45 22.0000000  0  5                                             
G06  25379176.240 8 133368462.626 8      -530.564 8        49.671               
G16  25566005.363 8 134350277.830 8     -2807.375 8        50.047               
G19  25639568.182 7 134736833.522 7      2609.729 7        47.306               
G10  27394595.304 7 143959574.896 7       627.680 7        42.970               
G03  24447612.074 8 128473067.650 8       755.969 8        50.897               
> 2012 09 14 12 45 23.0000000  0  5                                             
G06  25379275.735 8 133368995.745 8      -532.578 8        48.104               
G16  25566538.021 8 134353083.695 8     -2804.456 8        50.374               
G19  25639071.816 8 134734224.976 8      2605.365 8        48.377               
G10  27394478.655 7 143958951.061 7       623.321 7        43.588               
G03  24447469.140 8 128472312.697 8       754.569 8        51.548               
> 2012 09 14 12 45 24.0000000  0  5                                             
G06  25379377.428 7 133369529.503 7      -532.566 7        47.942               
G16  25567071.429 8 134355889.774 8     -2806.936 8        49.600               
G19  25638574.110 7 134731616.806 7      2608.730 7        47.782               
G10  27394361.416 7 143958327.795 7       626.981 7        42.436               
G03  24447324.812 8 128471558.419 8       753.839 8        50.804               
> 2012 09 14 12 45 25.0000000  0  5                                             
G06  25379478.584 8 133370063.897 8      -534.762 8        48.002               
G16  25567606.910 8 134358696.071 8     -2805.310 8        50.558               
G19  25638078.942 7 134729009.018 7      2609.074 7        47.559               
G10  27394244.803 7 143957705.108 7       619.250 7        42.322               
G03  24447179.394 8 128470804.824 8       752.030 8        50.075               
> 2012 09 14 12 45 26.0000000  0  5                                             
G06  25379579.330 8 133370598.924 8      -535.702 8        48.565               
G16  25568140.068 8 134361502.577 8     -2806.577 8        50.334               
G19  25637581.003 7 134726401.613 7      2608.573 7        47.587               
G10  27394121.918 7 143957082.990 7       622.157 7        43.039               
G03  24447035.834 8 128470051.905 8       752.024 8        50.489               
> 2012 09 14 12 45 27.0000000  0  5                                             
G06  25379680.111 8 133371134.592 8      -535.316 8        49.165               
G16  25568675.817 8 134364309.307 8     -2807.962 8        49.270               
G19  25637084.995 8 134723794.591 8      2608.459 8        48.110               
G10  27394007.878 7 143956461.442 7       622.308 7        43.464               
G03  24446892.882 8 128469299.670 8       752.505 8        50.602               
> 2012 09 14 12 45 28.0000000  0  5                                             
G06  25379782.822 8 133371670.886 8      -535.596 8        49.318               
G16  25569210.852 8 134367116.255 8     -2807.762 8        49.733               
G19  25636588.522 7 134721187.950 7      2607.270 7        47.815               
G10  27393882.437 7 143955840.486 7       619.756 7        42.697               
G03  24446749.304 8 128468548.109 8       752.365 8        50.774               
> 2012 09 14 12 45 29.0000000  0  5                                             
G06  25379883.943 8 133372207.811 8      -534.708 8        48.993               
G16  25569743.491 8 134369923.414 8     -2805.344 8        49.109               
G19  25636093.550 8 134718581.682 8      2606.596 8        48.600               
G10  27393767.003 7 143955220.082 7       624.536 7        42.053               
G03  24446604.869 8 128467797.231 8       750.793 8        51.099               
> 2012 09 14 12 45 30.0000000  0  5                                             
G06  25379987.119 8 133372745.369 8      -536.589 8        49.218               
G16  25570278.007 8 134372730.801 8     -2807.493 8        48.739               
G19  25635598.846 7 134715975.798 7      2604.808 7        47.827               
G10  27393645.369 6 143954600.276 6       621.044 6        41.674               
G03  24446462.757 8 128467047.038 8       750.502 8        49.781               
> 2012 09 14 12 45 31.0000000  0  5                                             
G06  25380090.938 8 133373283.577 8      -539.833 8        48.262               
G16  25570811.594 8 134375538.390 8     -2808.384 8        49.450               
G19  25635106.358 8 134713370.283 8      2605.430 8        48.171               
G10  27393530.686 6 143953981.030 6       618.167 6        41.993               
G03  24446320.162 8 128466297.526 8       747.690 8        50.449               
> 2012 09 14 12 45 32.0000000  0  5                                             
G06  25380189.789 8 133373822.403 8      -540.278 8        48.127               
G16  25571346.182 8 134378346.203 8     -2808.835 8        49.570               
G19  25634612.780 7 134710765.151 7      2605.884 7        47.915               
G10  27393410.999 7 143953362.364 7       623.184 7        42.161               
G03  24446177.031 8 128465548.690 8       750.298 8        51.096               
> 2012 09 14 12 45 33.0000000  0  5                                             
G06  25380291.714 8 133374361.865 8      -541.772 8        48.807               