     3.02           OBSERVATION DATA    G                   RINEX VERSION / TYPE
G = GPS  R = GLONASS  E = GALILEO  S = GEO  M = MIXED       COMMENT             
GNSS-SDR            UNKNOWN USER        20210821 153128 UTC PGM / RUN BY / DATE 
GPS OBSERVATION DATA FILE GENERATED BY GNSS-SDR             COMMENT             
GNSS-SDR VERSION 0.0.14.git-next-f767f792b                  COMMENT             
See https://gnss-sdr.org                                    COMMENT             
DEFAULT MARKER NAME                                         MARKER NAME         
UNKNOWN USER        CTTC                                    OBSERVER / AGENCY   
GNSS-SDR            Software Receiver   0.0.14.gi           REC # / TYPE / VERS 
Antenna number      Antenna type                            ANT # / TYPE        
        0.0000        0.0000        0.0000                  APPROX POSITION XYZ 
        0.0000        0.0000        0.0000                  ANTENNA: DELTA H/E/N
G    4 C1C L1C D1C S1C                                      SYS / # / OBS TYPES 
DBHZ                                                        SIGNAL STRENGTH UNIT
  2012    09    14    12    45   18.1200000     GPS         TIME OF FIRST OBS   
    16    16   158     7                                    LEAP SECONDS        
                                                            END OF HEADER       
> 2012 09 14 12 45 19.0000000  0  5                                             
G06  25378871.591 8 133366867.059 8      -529.827 8        48.935               
G16  25564405.246 8 134341861.532 8     -2804.142 8        50.889               
G19  25641056.743 8 134744661.414 8      2612.141 8        48.130               
G10  27394951.166 7 143961449.854 7       628.233 7        43.376               
G03  24448045.666 8 128475336.609 8       755.870 8        50.323               
> 2012 09 14 12 45 20.0000000  0  5                                             
G06  25378974.982 8 133367398.284 8      -531.252 8        49.420               
G16  25564937.743 8 134344666.747 8     -2804.097 8        50.372               
G19  25640561.914 8 134742051.743 8      2607.533 8        48.084               
G10  27394833.677 7 143960824.288 7       624.975 7        43.108               
G03  24447901.838 8 128474579.610 8       754.507 8        49.834               
> 2012 09 14 12 45 21.0000000  0  5                                             
G06  25379076.031 8 133367930.142 8      -531.939 8        49.655               
G16  25565471.508 8 134347472.181 8     -2805.542 8        49.989               
G19  25640065.620 8 134739442.443 8      2608.982 8        48.584               
G10  27394714.848 7 143960199.307 7       625.496 7        42.498               
G03  24447758.725 8 128473823.289 8       757.419 8        50.165               
> 2012 09 14 12 45 22.0000000  0  5                                             
G06  25379176.240 8 133368462.626 8      -530.564 8        49.670               
G16  25566005.363 8 134350277.830 8     -2807.375 8        50.048               
G19  25639568.182 7 134736833.522 7      2609.729 7        47.306               
G10  27394595.304 7 143959574.896 7       627.680 7        42.970               
G03  24447612.074 8 128473067.650 8       755.969 8        50.899               
> 2012 09 14 12 45 23.0000000  0  5                                             
G06  25379275.735 8 133368995.745 8      -532.578 8        48.104               
G16  25566538.021 8 134353083.695 8     -2804.456 8        50.374               
G19  25639071.816 8 134734224.976 8      2605.365 8        48.376               
G10  27394478.655 7 143958951.061 7       623.322 7        43.585               
G03  24447469.140 8 128472312.697 8       754.572 8        51.549               
> 2012 09 14 12 45 24.0000000  0  5                                             
G06  25379377.428 7 133369529.503 7      -532.566 7        47.942               
G16  25567071.429 8 134355889.774 8     -2806.935 8        49.600               
G19  25638574.110 7 134731616.806 7      2608.731 7        47.779               
G10  27394361.416 7 143958327.795 7       626.976 7        42.434               
G03  24447324.812 8 128471558.419 8       753.839 8        50.805               
> 2012 09 14 12 45 25.0000000  0  5                                             
G06  25379478.584 8 133370063.897 8      -534.762 8        48.002               
G16  25567606.910 8 134358696.071 8     -2805.309 8        50.559               
G19  25638078.942 7 134729009.018 7      2609.073 7        47.559               
G10  27394244.803 7 143957705.108 7       619.250 7        42.322               
G03  24447179.394 8 128470804.824 8       752.030 8        50.075               
> 2012 09 14 12 45 26.0000000  0  5                                             
G06  25379579.330 8 133370598.924 8      -535.707 8        48.564               
G16  25568140.068 8 134361502.576 8     -2806.577 8        50.334               
G19  25637581.003 7 134726401.613 7      2608.573 7        47.587               
G10  27394121.918 7 143957082.990 7       622.157 7        43.038               
G03  24447035.834 8 128470051.905 8       752.024 8        50.490               
> 2012 09 14 12 45 27.0000000  0  5                                             
G06  25379680.111 8 133371134.592 8      -535.313 8        49.166               
G16  25568675.817 8 134364309.307 8     -2807.962 8        49.270               
G19  25637084.995 8 134723794.591 8      2608.459 8        48.110               
G10  27394007.878 7 143956461.442 7       622.308 7        43.460               
G03  24446892.882 8 128469299.670 8       752.505 8        50.602               
> 2012 09 14 12 45 28.0000000  0  5                                             
G06  25379782.822 8 133371670.886 8      -535.596 8        49.318               
G16  25569210.852 8 134367116.255 8     -2807.763 8        49.733               
G19  25636588.522 7 134721187.950 7      2607.270 7        47.816               
G10  27393882.437 7 143955840.486 7       619.757 7        42.695               
G03  24446749.286 8 128468548.109 8       752.365 8        50.772               
> 2012 09 14 12 45 29.0000000  0  5                                             
G06  25379883.943 8 133372207.811 8      -534.708 8        48.993               
G16  25569743.491 8 134369923.414 8     -2805.344 8        49.109               
G19  25636093.550 8 134718581.682 8      2606.596 8        48.600               
G10  27393767.003 7 143955220.082 7       624.536 7        42.053               
G03  24446604.869 8 128467797.231 8       750.793 8        51.097               
> 2012 09 14 12 45 30.0000000  0  5                                             
G06  25379987.119 8 133372745.369 8      -536.560 8        49.217               
G16  25570278.007 8 134372730.801 8     -2807.493 8        48.737               
G19  25635598.846 7 134715975.798 7      2604.810 7        47.827               
G10  27393645.369 6 143954600.276 6       621.046 6        41.674               
G03  24446462.757 8 128467047.038 8       750.503 8        49.779               
> 2012 09 14 12 45 31.0000000  0  5                                             
G06  25380090.938 8 133373283.577 8      -539.833 8        48.262               
G16  25570811.594 8 134375538.390 8     -2808.402 8        49.449               
G19  25635106.358 8 134713370.283 8      2605.430 8        48.171               
G10  27393530.686 6 143953981.030 6       618.166 6        41.997               
G03  24446320.162 8 128466297.526 8       747.691 8        50.449               
> 2012 09 14 12 45 32.0000000  0  5                                             
G06  25380189.789 8 133373822.403 8      -540.278 8        48.127               
G16  25571346.182 8 134378346.203 8     -2808.836 8        49.570               
G19  25634612.780 7 134710765.151 7      2605.884 7        47.915               
G10  27393410.999 7 143953362.364 7       623.184 7        42.162               
G03  24446177.031 8 128465548.690 8       750.298 8        51.096               
> 2012 09 14 12 45 33.0000000  0  5                                             
G06  25380291.714 8 133374361.865 8      -541.772 8        48.808               
G16  25571880.573 8 134381154.226 8     -2808.676 8        49.165               
G19  25634116.790 8 134708160.390 8      2607.189 8        48.743               
G10  27393292.456 7 143952744.275 7       621.292 7        42.609               
G03  24446036.152 8 128464800.540 8       748.337 8        51.605               
> 2012 09 14 12 45 34.0000000  0  5                                             
G06  25380394.461 8 133374901.963 8      -540.842 8        48.856               
G16  25572413.892 8 134383962.465 8     -2808.804 8        49.234               
G19  25633620.263 8 134705556.021 8      2603.060 8        49.231               
G10  27393176.629 7 143952126.743 7       621.590 7        42.777               
G03  24445894.307 8 128464053.071 8       747.490 8        50.443               
> 2012 09 14 12 45 35.0000000  0  5                                             
G06  25380498.709 7 133375442.690 7      -542.110 7        47.558               
G16  25572950.320 8 134386770.926 8     -2808.838 8        49.448               
G19  25633125.059 8 134702952.024 8      2601.914 8        48.143               
G10  27393056.888 7 143951509.802 7       615.756 7        42.010               
G03  24445752.928 8 128463306.285 8       748.581 8        49.295               
> 2012 09 14 12 45 36.0000000  0  5                                             
G06  25380602.939 8 133375984.052 8      -540.333 8        48.053               
G16  25573486.212 8 134389579.594 8     -2810.007 8        49.906               
G19  25632631.749 8 134700348.404 8      2605.327 8        48.424               
G10  27392942.491 6 143950893.435 6       614.481 6        41.394               
G03  24445611.280 8 128462560.173 8       745.345 8        51.480               
> 2012 09 14 12 45 37.0000000  0  5                                             
G06  25380702.630 8 133376526.041 8      -543.020 8        48.894               
G16  25574018.602 8 134392388.470 8     -2809.032 8        49.871               
G19  25632134.847 8 134697745.161 8      2603.456 8        48.506               
G10  27392825.735 6 143950277.638 6       616.563 6        41.238               
G03  24445469.596 8 128461814.752 8       743.739 8        52.200               
> 2012 09 14 12 45 38.0000000  0  5                                             
G06  25380807.361 8 133377068.663 8      -545.986 8        49.652               
G16  25574554.654 8 134395197.571 8     -2809.315 8        49.624               
G19  25631640.268 8 134695142.307 8      2602.941 8        48.597               
G10  27392710.640 7 143949662.396 7       620.081 7        42.269               
G03  24445327.984 8 128461070.011 8       743.461 8        51.292               
> 2012 09 14 12 45 39.0000000  0  5                                             
G06  25380910.483 8 133377611.923 8      -542.601 8        48.847               
G16  25575085.650 8 134398006.876 8     -2809.337 8        49.324               
G19  25631146.583 8 134692539.815 8      2600.659 8        48.682               
G10  27392593.902 7 143949047.744 7       615.895 7        42.088               
G03  24445184.836 8 128460325.950 8       744.082 8        49.649               
> 2012 09 14 12 45 40.0000000  0  5                                             
G06  25381012.658 8 133378155.813 8      -544.207 8        48.729               
G16  25575619.684 8 134400816.399 8     -2809.725 8        50.023               
G19  25630651.343 8 134689937.723 8      2600.709 8        48.451               
G10  27392480.988 7 143948433.668 7       610.175 7        42.757               
G03  24445042.241 8 128459582.567 8       743.983 8        50.389               
> 2012 09 14 12 45 41.0000000  0  5                                             
G06  25381116.262 7 133378700.331 7      -547.234 7        47.900               
G16  25576151.252 8 134403626.139 8     -2809.601 8        49.586               
G19  25630157.943 8 134687336.005 8      2600.732 8        48.859               
G10  27392364.732 6 143947820.150 6       614.320 6        41.706               
G03  24444900.772 8 128458839.865 8       743.106 8        49.962               
> 2012 09 14 12 45 42.0000000  0  5                                             
G06  25381222.315 8 133379245.488 8      -546.679 8        48.020               
G16  25576685.589 8 134406436.094 8     -2811.760 8        48.851               
G19  25629663.329 8 134684734.657 8      2601.961 8        48.174               
G10  27392249.244 7 143947207.230 7       613.135 7        42.859               
G03  24444758.391 8 128458097.845 8       740.590 8        49.781               
> 2012 09 14 12 45 43.0000000  0  5                                             
G06  25381325.848 8 133379791.279 8      -545.067 8        48.507               
G16  25577221.124 8 134409246.258 8     -2810.708 8        48.722               
G19  25629163.639 8 134682133.690 8      2599.457 8        48.515               
G10  27392134.186 7 143946594.865 7       612.312 7        43.660               
G03  24444616.350 8 128457356.502 8       741.902 8        50.288               
> 2012 09 14 12 45 44.0000000  0  5                                             
G06  25381429.953 7 133380337.710 7      -546.394 7        47.711               
G16  25577757.087 8 134412056.640 8     -2810.939 8        48.301               
G19  25628667.488 8 134679533.104 8      2599.311 8        48.051               
G10  27392014.570 7 143945983.084 7       611.112 7        42.427               
G03  24444475.632 8 128456615.843 8       740.768 8        49.857               
> 2012 09 14 12 45 45.0000000  0  5                                             
G06  25381534.505 8 133380884.773 8      -549.051 8        48.280               
G16  25578290.870 8 134414867.238 8     -2812.093 8        48.236               
G19  25628169.139 8 134676932.896 8      2601.661 8        48.054               
G10  27391898.958 7 143945371.863 7       615.052 7        42.794               
G03  24444337.772 8 128455875.863 8       740.678 8        50.426               
> 2012 09 14 12 45 46.0000000  0  5                                             
G06  25381638.038 7 133381432.475 7      -548.064 7        47.207               
G16  25578827.227 8 134417678.042 8     -2811.069 8        48.203               
G19  25627675.007 7 134674333.074 7      2600.771 7        47.785               
G10  27391782.345 7 143944761.219 7       609.869 7        42.314               
G03  24444197.715 8 128455136.570 8       739.299 8        50.478               
> 2012 09 14 12 45 47.0000000  0  5                                             
G06  25381742.018 7 133381980.807 7      -547.171 7        46.614               
G16  25579361.868 8 134420489.068 8     -2811.307 8        49.326               
G19  25627179.660 8 134671733.631 8      2598.378 8        48.039               
G10  27391665.231 7 143944151.166 7       607.323 7        43.596               
G03  24444057.264 8 128454397.958 8       738.401 8        50.413               
> 2012 09 14 12 45 48.0000000  0  5                                             
G06  25381847.284 7 133382529.776 7      -551.524 7        47.274               
G16  25579896.849 8 134423300.308 8     -2809.246 8        49.213               
G19  25626686.939 8 134669134.571 8      2598.424 8        48.429               
G10  27391550.655 7 143943541.652 7       611.198 7        42.516               
G03  24443916.224 8 128453660.021 8       735.586 8        50.423               
> 2012 09 14 12 45 49.0000000  0  5                                             
G06  25381950.406 7 133383079.383 7      -550.747 7        47.787               
G16  25580431.633 8 134426111.764 8     -2811.531 8        48.495               
G19  25626191.574 8 134666535.891 8      2600.724 8        48.046               
G10  27391428.663 7 143942932.750 7       607.414 7        42.239               
G03  24443776.256 8 128452922.766 8       735.321 8        49.649               
> 2012 09 14 12 45 50.0000000  0  5                                             
G06  25382058.299 8 133383629.626 8      -550.611 8        48.178               
G16  25580967.186 8 134428923.426 8     -2813.069 8        48.457               
G19  25625697.013 7 134663937.587 7      2600.242 7        47.311               
G10  27391311.156 6 143942324.396 6       610.052 6        41.483               
G03  24443636.342 8 128452186.191 8       738.247 8        50.910               
> 2012 09 14 12 45 51.0000000  0  5                                             
G06  25382163.083 8 133384180.484 8      -550.820 8        49.141               
G16  25581502.845 8 134431735.312 8     -2811.710 8        48.704               
G19  25625200.647 8 134661339.670 8      2594.951 8        48.556               
G10  27391197.652 6 143941716.639 6       604.933 6        40.615               
G03  24443495.230 8 128451450.295 8       734.613 8        50.707               
> 2012 09 14 12 45 52.0000000  0  5                                             
G06  25382266.902 8 133384731.983 8      -551.822 8        49.877               
G16  25582036.468 8 134434547.396 8     -2812.294 8        49.302               
G19  25624705.747 8 134658742.128 8      2598.731 8        48.622               
G10  27391082.040 6 143941109.426 6       610.476 6        40.181               
G03  24443354.476 8 128450715.079 8       734.430 8        51.925               
> 2012 09 14 12 45 53.0000000  0  5                                             
G06  25382370.578 8 133385284.112 8      -553.954 8        49.461               
G16  25582572.789 8 134437359.698 8     -2812.096 8        48.490               
G19  25624214.045 8 134656144.967 8      2597.093 8        48.481               
G10  27390967.499 6 143940502.807 6       610.626 6        41.370               
G03  24443215.491 8 128449980.546 8       736.156 8        51.923               
> 2012 09 14 12 45 54.0000000  0  5                                             
G06  25382476.292 8 133385836.882 8      -551.809 8        49.770               
G16  25583108.895 8 134440172.216 8     -2811.750 8        49.418               
G19  25623718.573 8 134653548.194 8      2597.108 8        48.803               
G10  27390852.887 6 143939896.759 6       608.144 6        41.455               
G03  24443076.505 8 128449246.696 8       734.695 8        50.743               
> 2012 09 14 12 45 55.0000000  0  5                                             
G06  25382580.021 8 133386390.287 8      -553.742 8        48.982               
G16  25583644.805 8 134442984.944 8     -2811.141 8        49.811               
G19  25623225.656 8 134650951.804 8      2594.065 8        48.870               
G10  27390741.492 6 143939291.289 6       599.608 6        41.650               
G03  24442935.394 8 128448513.535 8       731.703 8        51.033               
> 2012 09 14 12 45 56.0000000  0  5                                             
G06  25382686.199 8 133386944.332 8      -553.547 8        48.085               
G16  25584180.751 8 134445797.887 8     -2814.835 8        49.461               
G19  25622731.917 8 134648355.800 8      2594.704 8        48.100               
G10  27390625.129 6 143938686.386 6       603.182 6        41.257               
G03  24442798.428 8 128447781.051 8       733.595 8        50.107               
> 2012 09 14 12 45 57.0000000  0  5                                             
G06  25382790.054 8 133387499.006 8      -555.379 8        48.012               
G16  25584715.177 8 134448611.041 8     -2813.241 8        49.233               
G19  25622237.070 8 134645760.184 8      2594.892 8        49.105               
G10  27390507.372 6 143938082.050 6       606.718 6        40.853               
G03  24442659.496 8 128447049.245 8       731.710 8        50.957               
> 2012 09 14 12 45 58.0000000  0  5                                             
G06  25382896.625 7 133388054.311 7      -554.300 7        47.961               
G16  25585250.730 8 134451424.420 8     -2815.320 8        49.750               
G19  25621745.386 8 134643164.937 8      2595.660 8        48.948               
G10  27390393.403 6 143937478.301 6       604.133 6        41.878               
G03  24442519.724 8 128446318.132 8       729.822 8        49.891               
> 2012 09 14 12 45 59.0000000  0  5                                             
G06  25383002.570 7 133388610.253 7      -557.176 7        47.301               
G16  25585786.979 8 134454238.003 8     -2814.505 8        49.389               
G19  25621252.898 8 134640570.080 8      2592.358 8        48.340               
G10  27390277.362 6 143936875.117 6       601.908 6        41.937               
G03  24442383.348 8 128445587.690 8       729.870 8        50.264               
> 2012 09 14 12 46 00.0000000  0  5                                             
G06  25383105.370 7 133389166.810 7      -557.155 7        47.157               
G16  25586322.746 8 134457051.804 8     -2815.710 8        49.188               
G19  25620762.143 8 134637975.600 8      2591.573 8        49.060               
G10  27390162.214 7 143936272.522 7       603.263 7        42.322               
G03  24442243.880 8 128444857.938 8       728.361 8        50.642               
> 2012 09 14 12 46 01.0000000  0  5                                             
G06  25383212.477 8 133389723.998 8      -555.362 8        48.178               
G16  25586858.674 8 134459865.813 8     -2813.967 8        49.334               
G19  25620269.708 8 134635381.491 8      2596.997 8        49.530               
G10  27390047.745 7 143935670.482 7       601.080 7        42.271               
G03  24442107.057 8 128444128.865 8       730.154 8        50.949               
> 2012 09 14 12 46 02.0000000  0  5                                             
G06  25383319.584 8 133390281.824 8      -556.041 8        49.150               
G16  25587394.780 8 134462680.027 8     -2812.362 8        48.341               
G19  25619778.882 8 134632787.768 8      2594.119 8        49.762               
G10  27389932.633 7 143935069.016 7       602.330 7        42.979               
G03  24441966.178 8 128443400.473 8       727.661 8        51.743               
> 2012 09 14 12 46 03.0000000  0  5                                             
G06  25383426.655 8 133390840.285 8      -556.260 8        49.821               
G16  25587930.708 8 134465494.467 8     -2813.822 8        49.649               
G19  25619283.142 8 134630194.439 8      2594.085 8        49.953               
G10  27389816.841 7 143934468.139 7       601.563 7        42.924               
G03  24441828.157 8 128442672.758 8       724.990 8        50.663               
> 2012 09 14 12 46 04.0000000  0  5                                             
G06  25383533.334 8 133391399.379 8      -560.165 8        48.670               
G16  25588465.153 8 134468309.109 8     -2815.517 8        49.408               
G19  25618789.188 8 134627601.477 8      2590.954 8        49.807               
G10  27389707.215 7 143933867.826 7       597.177 7        43.002               
G03  24441688.636 8 128441945.726 8       729.431 8        51.397               
> 2012 09 14 12 46 05.0000000  0  5                                             
G06  25383641.638 7 133391959.114 7      -559.911 7        47.604               
G16  25588999.955 8 134471123.965 8     -2810.909 8        50.069               
G19  25618293.680 8 134625008.909 8      2591.619 8        49.340               
G10  27389593.586 7 143933268.097 7       600.496 7        43.260               
G03  24441553.010 8 128441219.382 8       727.851 8        51.186               
> 2012 09 14 12 46 06.0000000  0  5                                             
G06  25383748.923 8 133392519.468 8      -558.452 8        48.358               
G16  25589537.491 8 134473939.038 8     -2813.365 8        49.121               
G19  25617799.870 8 134622416.716 8      2588.565 8        48.704               
G10  27389479.796 7 143932668.930 7       597.333 7        43.085               
G03  24441414.633 8 128440493.722 8       723.944 8        50.377               
> 2012 09 14 12 46 07.0000000  0  5                                             
G06  25383856.870 8 133393080.462 8      -559.933 8        48.475               
G16  25590072.400 8 134476754.319 8     -2814.819 8        49.244               
G19  25617307.275 8 134619824.901 8      2591.456 8        49.061               
G10  27389367.954 7 143932070.347 7       600.462 7        43.267               
G03  24441275.647 8 128439768.743 8       726.345 8        50.891               
> 2012 09 14 12 46 08.0000000  0  5                                             
G06  25383961.172 8 133393642.090 8      -562.273 8        50.242               
G16  25590606.416 8 134479569.813 8     -2815.597 8        49.255               
G19  25616814.483 8 134617233.487 8      2590.573 8        49.440               
G10  27389247.374 7 143931472.318 7       597.129 7        43.454               
G03  24441137.180 8 128439044.446 8       724.152 8        50.165               
> 2012 09 14 12 46 09.0000000  0  5                                             
G06  25384067.796 8 133394204.359 8      -565.105 8        49.081               
G16  25591143.415 8 134482385.519 8     -2815.764 8        49.414               
G19  25616321.155 8 134614642.450 8      2591.747 8        48.991               
G10  27389131.654 7 143930874.887 7       598.068 7        42.939               
G03  24441000.250 8 128438320.831 8       721.163 8        50.381               
> 2012 09 14 12 46 10.0000000  0  5                                             
G06  25384175.671 8 133394767.248 8      -565.213 8        48.600               
G16  25591676.556 8 134485201.437 8     -2816.488 8        49.964               
G19  25615826.665 8 134612051.803 8      2590.404 8        48.532               
G10  27389017.757 7 143930278.024 7       598.902 7        43.070               
G03  24440862.283 8 128437597.898 8       721.758 8        50.625               
> 2012 09 14 12 46 11.0000000  0  5                                             
G06  25384283.296 8 133395330.771 8      -564.902 8        49.760               
G16  25592213.109 8 134488017.565 8     -2813.380 8        49.878               
G19  25615332.211 7 134609461.525 7      2589.889 7        47.762               
G10  27388903.234 7 143929681.732 7       598.543 7        42.236               
G03  24440724.960 8 128436875.641 8       721.019 8        51.404               
> 2012 09 14 12 46 12.0000000  0  5                                             
G06  25384390.475 8 133395894.937 8      -565.636 8        48.708               
G16  25592749.733 8 134490833.906 8     -2814.560 8        49.868               
G19  25614837.793 8 134606871.639 8      2592.352 8        48.400               
G10  27388793.804 7 143929086.024 7       593.348 7        42.448               
G03  24440588.333 8 128436154.068 8       722.096 8        51.714               
> 2012 09 14 12 46 13.0000000  0  5                                             
G06  25384497.618 8 133396459.731 8      -566.330 8        49.103               
G16  25593285.232 8 134493650.453 8     -2814.127 8        48.872               
G19  25614343.858 8 134604282.124 8      2587.057 8        48.081               
G10  27388681.408 7 143928490.880 7       595.447 7        42.470               
G03  24440450.688 8 128435433.174 8       721.762 8        51.343               
> 2012 09 14 12 46 14.0000000  0  5                                             
G06  25384605.671 8 133397025.157 8      -564.498 8        48.786               
G16  25593820.499 8 134496467.222 8     -2816.269 8        49.640               
G19  25613853.389 8 134601693.000 8      2590.202 8        48.401               
G10  27388567.904 7 143927896.311 7       598.098 7        42.902               
G03  24440313.865 8 128434712.959 8       720.467 8        51.914               
> 2012 09 14 12 46 15.0000000  0  5                                             
G06  25384713.386 8 133397591.222 8      -569.197 8        48.688               
G16  25594356.319 8 134499284.191 8     -2815.349 8        49.598               
G19  25613361.133 8 134599104.262 8      2589.410 8        48.514               
G10  27388458.742 7 143927302.306 7       594.876 7        42.504               
G03  24440177.346 8 128433993.430 8       717.402 8        50.971               
> 2012 09 14 12 46 16.0000000  0  5                                             
G06  25384818.384 8 133398157.923 8      -567.986 8        48.337               
G16  25594892.265 8 134502101.382 8     -2816.210 8        48.810               
G19  25612869.056 8 134596515.911 8      2590.490 8        48.313               
G10  27388343.791 7 143926708.877 7       592.341 7        42.028               
G03  24440039.093 8 128433274.584 8       718.041 8        50.997               
> 2012 09 14 12 46 17.0000000  0  5                                             
G06  25384927.171 8 133398725.247 8      -565.987 8        48.943               
G16  25595428.353 8 134504918.777 8     -2816.302 8        48.810               
G19  25612377.461 8 134593927.951 8      2585.956 8        48.670               
G10  27388232.306 7 143926116.035 7       590.007 7        42.576               
G03  24439901.126 8 128432556.426 8       717.202 8        50.556               
> 2012 09 14 12 46 18.0000000  0  5                                             
G06  25385036.101 8 133399293.209 8      -567.131 8        48.075               
G16  25595964.085 8 134507736.384 8     -2817.035 8        48.414               
G19  25611881.792 8 134591340.363 8      2587.493 8        49.780               
G10  27388118.301 6 143925523.753 6       591.349 6        41.848               
G03  24439763.749 8 128431838.942 8       718.678 8        50.831               
> 2012 09 14 12 46 19.0000000  0  5                                             
G06  25385143.815 8 133399861.809 8      -565.369 8        48.788               
G16  25596500.191 8 134510554.199 8     -2814.739 8        49.296               
G19  25611387.589 8 134588753.157 8      2585.878 8        49.058               
G10  27388003.707 6 143924932.054 6       589.319 6        39.983               
G03  24439629.106 8 128431122.149 8       715.349 8        49.887               
> 2012 09 14 12 46 20.0000000  0  5                                             
G06  25385254.067 8 133400431.043 8      -568.849 8        49.553               
G16  25597036.548 8 134513372.231 8     -2818.421 8        49.431               
G19  25610895.172 8 134586166.339 8      2588.544 8        48.803               
G10  27387891.008 6 143924340.929 6       590.718 6        40.516               
G03  24439492.587 8 128430406.042 8       716.662 8        50.134               
> 2012 09 14 12 46 21.0000000  0  5                                             
G06  25385360.781 8 133401000.914 8      -571.287 8        49.323               
G16  25597574.584 8 134516190.469 8     -2817.774 8        49.925               
G19  25610402.059 8 134583579.912 8      2588.208 8        48.091               
G10  27387778.397 6 143923750.374 6       585.036 6        40.637               
G03  24439355.406 8 128429690.616 8       714.113 8        50.586               
> 2012 09 14 12 46 22.0000000  0  5                                             
G06  25385468.120 8 133401571.416 8      -567.852 8        49.126               
G16  25598111.316 8 134519008.926 8     -2820.944 8        50.056               
G19  25609908.784 7 134580993.865 7      2581.720 7        47.689               
G10  27387659.264 6 143923160.410 6       586.579 6        40.788               
G03  24439221.138 8 128428975.869 8       715.362 8        51.508               
> 2012 09 14 12 46 23.0000000  0  5                                             
G06  25385578.908 8 133402142.553 8      -573.965 8        49.663               
G16  25598649.138 8 134521827.584 8     -2821.275 8        49.494               
G19  25609418.280 8 134578408.203 8      2585.189 8        48.933               
G10  27387552.264 6 143922571.001 6       587.980 6        41.808               
G03  24439085.030 8 128428261.800 8       714.305 8        50.339               
> 2012 09 14 12 46 24.0000000  0  5                                             
G06  25385687.480 8 133402714.323 8      -571.231 8        49.067               
G16  25599185.655 8 134524646.453 8     -2817.657 8        49.549               
G19  25608927.489 8 134575822.922 8      2585.531 8        49.298               
G10  27387438.921 6 143921982.176 6       587.797 6        41.460               
G03  24438948.564 8 128427548.413 8       712.651 8        49.339               
> 2012 09 14 12 46 25.0000000  0  5                                             
G06  25385796.570 7 133403286.715 7      -574.256 7        47.638               
G16  25599719.957 8 134527465.525 8     -2817.956 8        49.719               
G19  25608434.626 8 134573238.019 8      2584.897 8        48.278               
G10  27387330.563 7 143921393.921 7       587.726 7        42.036               
G03  24438811.187 8 128426835.710 8       714.402 8        50.759               
> 2012 09 14 12 46 26.0000000  0  5                                             
G06  25385907.591 8 133403859.740 8      -572.439 8        48.177               
G16  25600257.636 8 134530284.811 8     -2818.283 8        50.186               
G19  25607940.994 7 134570653.503 7      2586.299 7        47.623               
G10  27387219.793 7 143920806.227 7       589.118 7        42.979               
G03  24438676.455 8 128426123.688 8       711.309 8        51.069               
> 2012 09 14 12 46 27.0000000  0  5                                             
G06  25386018.933 8 133404433.397 8      -573.717 8        48.580               
G16  25600793.546 8 134533104.313 8     -2821.313 8        49.933               
G19  25607448.631 7 134568069.384 7      2582.413 7        47.351               
G10  27387112.472 7 143920219.116 7       587.588 7        42.221               
G03  24438540.007 8 128425412.350 8       710.505 8        50.976               
> 2012 09 14 12 46 28.0000000  0  5                                             
G06  25386128.130 8 133405007.692 8      -573.878 8        49.262               
G16  25601331.796 8 134535924.022 8     -2821.845 8        50.058               
G19  25606955.696 7 134565485.640 7      2584.709 7        47.923               
G10  27386996.038 7 143919632.567 7       584.318 7        42.219               
G03  24438405.400 8 128424701.691 8       711.015 8        51.687               
> 2012 09 14 12 46 29.0000000  0  5                                             
G06  25386237.310 8 133405582.616 8      -572.406 8        48.661               
G16  25601867.849 8 134538743.940 8     -2821.477 8        49.997               
G19  25606465.191 8 134562902.284 8      2583.606 8        48.124               
G10  27386880.782 6 143919046.614 6       581.729 6        41.842               
G03  24438270.292 8 128423991.724 8       708.614 8        52.087               
> 2012 09 14 12 46 30.0000000  0  5                                             
G06  25386344.488 8 133406158.175 8      -575.711 8        48.212               
G16  25602405.993 8 134541564.077 8     -2819.050 8        51.123               
G19  25605972.935 8 134560319.318 8      2586.116 8        49.406               
G10  27386774.783 7 143918461.228 7       590.107 7        42.655               
G03  24438136.828 8 128423282.433 8       711.043 8        50.902               
> 2012 09 14 12 46 31.0000000  0  5                                             
G06  25386451.863 8 133406734.381 8      -577.070 8        48.276               
G16  25602942.581 8 134544384.427 8     -2821.488 8        50.419               
G19  25605481.484 8 134557736.735 8      2579.903 8        48.189               
G10  27386667.194 7 143917876.406 7       585.263 7        42.247               
G03  24438002.346 8 128422573.835 8       709.875 8        51.206               
> 2012 09 14 12 46 32.0000000  0  5                                             
G06  25386561.275 7 133407311.205 7      -577.429 7        47.722               
G16  25603480.100 8 134547204.981 8     -2820.250 8        49.627               
G19  25604993.070 8 134555154.537 8      2583.004 8        48.080               
G10  27386553.243 6 143917292.157 6       579.711 6        41.333               
G03  24437868.436 8 128421865.907 8       708.614 8        51.132               
> 2012 09 14 12 46 33.0000000  0  5                                             
G06  25386671.956 7 133407888.667 7      -576.352 7        47.660               
G16  25604016.867 8 134550025.744 8     -2821.157 8        50.270               
G19  25604502.154 8 134552572.735 8      2584.789 8        48.066               
G10  27386445.707 7 143916708.468 7       585.659 7        42.776               
G03  24437735.168 8 128421158.683 8       706.293 8        51.231               
> 2012 09 14 12 46 34.0000000  0  5                                             
G06  25386781.189 7 133408466.769 7      -579.563 7        47.508               
G16  25604553.099 8 134552846.719 8     -2820.984 8        50.089               
G19  25604010.041 7 134549991.316 7      2583.443 7        47.291               
G10  27386331.846 7 143916125.379 7       588.384 7        42.433               
G03  24437600.811 8 128420452.129 8       706.764 8        52.064               
> 2012 09 14 12 46 35.0000000  0  5                                             
G06  25386892.710 7 133409045.515 7      -576.939 7        47.540               
G16  25605090.492 8 134555667.897 8     -2821.112 8        49.883               
G19  25603518.768 7 134547410.281 7      2580.029 7        47.274               
G10  27386215.358 7 143915542.860 7       583.186 7        42.062               
G03  24437467.044 8 128419746.262 8       704.035 8        51.724               
> 2012 09 14 12 46 36.0000000  0  5                                             
G06  25387003.319 7 133409624.888 7      -580.747 7        46.765               
G16  25605627.277 8 134558489.287 8     -2821.163 8        49.558               
G19  25603030.497 7 134544829.630 7      2581.092 7        47.526               
G10  27386105.892 7 143914960.894 7       578.907 7        42.629               
G03  24437331.865 8 128419041.072 8       703.781 8        51.269               
> 2012 09 14 12 46 37.0000000  0  5                                             
G06  25387113.303 7 133410204.897 7      -579.665 7        46.248               
G16  25606163.312 8 134561310.881 8     -2823.428 8        49.769               
G19  25602540.493 8 134542249.366 8      2579.621 8        48.504               
G10  27385996.963 7 143914379.519 7       581.471 7        42.439               
G03  24437198.151 8 128418336.565 8       705.619 8        50.634               
> 2012 09 14 12 46 38.0000000  0  5                                             
G06  25387222.197 7 133410785.531 7      -582.242 7        45.852               
G16  25606700.330 8 134564132.685 8     -2820.283 8        50.060               
G19  25602050.578 8 134539669.482 8      2580.871 8        48.942               
G10  27385890.285 7 143913798.711 7       577.981 7        42.990               
G03  24437065.312 8 128417632.736 8       704.708 8        50.818               
> 2012 09 14 12 46 39.0000000  0  5                                             
G06  25387333.110 7 133411366.783 7      -579.094 7        46.448               
G16  25607236.472 8 134566954.690 8     -2821.549 8        49.637               
G19  25601559.591 8 134537089.999 8      2577.946 8        48.557               
G10  27385781.087 7 143913218.474 7       582.501 7        42.058               
G03  24436930.008 8 128416929.593 8       704.025 8        50.723               
> 2012 09 14 12 46 40.0000000  0  5                                             
G06  25387446.525 7 133411948.677 7      -583.688 7        46.957               
G16  25607774.187 8 134569776.917 8     -2821.484 8        50.405               
G19  25601068.871 8 134534510.894 8      2578.897 8        49.065               
G10  27385669.888 7 143912638.819 7       578.354 7        42.665               
G03  24436796.795 8 128416227.135 8       701.998 8        51.869               
> 2012 09 14 12 46 41.0000000  0  5                                             
G06  25387556.633 7 133412531.200 7      -584.738 7        46.946               
G16  25608311.633 8 134572599.347 8     -2821.980 8        49.428               
G19  25600580.297 8 134531932.171 8      2579.434 8        48.085               
G10  27385563.121 7 143912059.728 7       579.580 7        42.868               
G03  24436663.563 8 128415525.366 8       701.054 8        51.344               
> 2012 09 14 12 46 42.0000000  0  5                                             
G06  25387666.313 7 133413114.364 7      -584.234 7        47.103               
G16  25608849.419 8 134575421.988 8     -2821.660 8        49.536               
G19  25600094.813 8 134529353.848 8      2577.098 8        49.632               
G10  27385446.561 7 143911481.228 7       578.137 7        43.631               
G03  24436531.189 8 128414824.282 8       700.400 8        51.129               
> 2012 09 14 12 46 43.0000000  0  5                                             
G06  25387776.780 7 133413698.158 7      -582.895 7        47.381               
G16  25609386.669 8 134578244.836 8     -2821.338 8        50.031               
G19  25599602.647 8 134526775.901 8      2577.897 8        49.448               
G10  27385333.843 7 143910903.292 7       578.987 7        44.009               
G03  24436396.761 8 128414123.871 8       700.401 8        51.279               
> 2012 09 14 12 46 44.0000000  0  5                                             
G06  25387887.711 7 133414282.581 7      -582.965 7        46.913               
G16  25609924.473 8 134581067.894 8     -2822.401 8        51.013               
G19  25599112.374 8 134524198.345 8      2577.811 8        49.063               
G10  27385223.180 7 143910325.937 7       574.926 7        44.084               
G03  24436264.941 8 128413424.153 8       699.853 8        51.642               
> 2012 09 14 12 46 45.0000000  0  5                                             
G06  25387999.785 7 133414867.644 7      -586.299 7        47.750               
G16  25610460.812 8 134583891.163 8     -2821.355 8        49.937               
G19  25598621.137 8 134521621.177 8      2578.017 8        49.361               
G10  27385107.782 7 143909749.159 7       574.579 7        43.528               
G03  24436131.120 8 128412725.116 8       697.479 8        51.796               
> 2012 09 14 12 46 46.0000000  0  5                                             
G06  25388111.788 8 133415453.340 8      -585.305 8        49.057               
G16  25610999.813 8 134586714.646 8     -2823.310 8        49.639               
G19  25598131.240 8 134519044.400 8      2572.751 8        49.313               
G10  27384999.353 7 143909172.943 7       577.993 7        42.596               
G03  24436000.033 8 128412026.754 8       698.317 8        50.922               
> 2012 09 14 12 46 47.0000000  0  5                                             
G06  25388222.666 8 133416039.671 8      -587.710 8        48.408               
G16  25611537.296 8 134589538.328 8     -2822.892 8        50.270               
G19  25597639.895 8 134516468.015 8      2576.720 8        48.649               
G10  27384890.870 7 143908597.314 7       577.649 7        42.444               
G03  24435865.461 8 128411329.081 8       697.252 8        50.788               
> 2012 09 14 12 46 48.0000000  0  5                                             
G06  25388337.510 8 133416626.630 8      -586.615 8        49.171               
G16  25612074.796 8 134592362.220 8     -2821.285 8        49.165               
G19  25597149.551 8 134513892.011 8      2576.792 8        48.295               
G10  27384782.101 6 143908022.258 6       573.508 6        41.432               
G03  24435733.963 8 128410632.091 8       697.273 8        51.192               
> 2012 09 14 12 46 49.0000000  0  5                                             
G06  25388447.905 8 133417214.225 8      -588.323 8        49.520               
G16  25612612.296 8 134595186.324 8     -2824.179 8        49.670               
G19  25596656.742 8 134511316.395 8      2571.938 8        48.422               
G10  27384675.370 6 143907447.777 6       575.216 6        40.835               
G03  24435600.624 8 128409935.786 8       696.286 8        51.907               
> 2012 09 14 12 46 50.0000000  0  5                                             
G06  25388558.907 7 133417802.447 7      -588.112 7        47.846               
G16  25613150.618 8 134598010.629 8     -2822.504 8        50.734               
G19  25596167.273 8 134508741.173 8      2576.254 8        48.245               
G10  27384554.754 7 143906873.856 7       573.517 7        42.029               
G03  24435470.127 8 128409240.163 8       695.058 8        51.062               
> 2012 09 14 12 46 51.0000000  0  5                                             
G06  25388671.571 8 133418391.297 8      -590.497 8        48.636               
G16  25613686.600 8 134600835.146 8     -2823.653 8        49.933               
G19  25595676.161 8 134506166.336 8      2573.315 8        48.717               
G10  27384452.972 6 143906300.505 6       579.418 6        41.145               
G03  24435336.198 8 128408545.225 8       693.014 8        50.367               
> 2012 09 14 12 46 52.0000000  0  5                                             
G06  25388783.449 7 133418980.783 7      -590.063 7        47.807               
G16  25614224.618 8 134603659.868 8     -2822.679 8        50.034               
G19  25595184.852 8 134503591.887 8      2577.066 8        48.402               
G10  27384350.547 7 143905727.749 7       571.574 7        42.329               
G03  24435203.003 8 128407850.963 8       696.244 8        49.333               
> 2012 09 14 12 46 53.0000000  0  5                                             
G06  25388896.631 8 133419570.906 8      -592.190 8        48.316               
G16  25614761.064 8 134606484.801 8     -2825.890 8        49.564               
G19  25594697.493 8 134501017.831 8      2573.006 8        48.946               
G10  27384237.132 7 143905155.548 7       572.708 7        42.193               
G03  24435069.003 8 128407157.395 8       693.631 8        50.046               
> 2012 09 14 12 46 54.0000000  0  5                                             
G06  25389009.242 8 133420161.649 8      -589.902 8        49.126               
G16  25615298.439 8 134609309.941 8     -2826.351 8        49.759               
G19  25594205.683 8 134498444.156 8      2571.296 8        49.924               
G10  27384129.382 7 143904583.922 7       572.891 7        42.754               
G03  24434937.147 8 128406464.503 8       691.619 8        50.120               
> 2012 09 14 12 46 55.0000000  0  5                                             
G06  25389122.085 8 133420753.016 8      -590.021 8        49.252               
G16  25615834.706 8 134612135.287 8     -2827.485 8        50.818               
G19  25593717.323 8 134495870.865 8      2574.757 8        48.532               
G10  27384026.760 7 143904012.866 7       570.292 7        42.199               
G03  24434803.719 8 128405772.290 8       693.559 8        50.804               
> 2012 09 14 12 46 56.0000000  0  5                                             
G06  25389234.964 8 133421345.038 8      -591.307 8        49.204               
G16  25616370.973 8 134614960.842 8     -2827.193 8        50.436               
G19  25593223.638 8 134493297.959 8      2574.156 8        48.943               
G10  27383920.618 6 143903442.396 6       569.519 6        41.767               
G03  24434670.685 8 128405080.773 8       689.632 8        51.510               
> 2012 09 14 12 46 57.0000000  0  5                                             
G06  25389345.823 8 133421937.711 8      -594.095 8        49.006               
G16  25616909.653 8 134617786.615 8     -2826.045 8        49.561               
G19  25592737.457 8 134490725.441 8      2572.276 8        49.928               
G10  27383807.489 6 143902872.504 6       567.675 6        41.093               
G03  24434541.170 8 128404389.943 8       690.706 8        51.268               
> 2012 09 14 12 46 58.0000000  0  5                                             
G06  25389457.504 8 133422530.998 8      -595.861 8        49.189               
G16  25617447.118 8 134620612.583 8     -2824.984 8        49.626               
G19  25592247.971 8 134488153.318 8      2572.359 8        49.522               
G10  27383700.650 6 143902303.171 6       571.718 6        40.899               
G03  24434411.280 8 128403699.791 8       688.386 8        51.290               
> 2012 09 14 12 46 59.0000000  0  5                                             
G06  25389569.883 8 133423124.910 8      -595.066 8        48.629               
G16  25617985.350 8 134623438.763 8     -2824.985 8        49.260               
G19  25591758.717 8 134485581.584 8      2574.696 8        49.586               
G10  27383593.079 6 143901734.418 6       571.832 6        40.171               
G03  24434281.211 8 128403010.329 8       690.854 8        50.499               
> 2012 09 14 12 47 00.0000000  0  5                                             
G06  25389684.709 8 133423719.447 8      -594.389 8        48.477               
G16  25618524.066 8 134626265.151 8     -2827.352 8        49.312               
G19  25591268.445 8 134483010.246 8      2572.055 8        48.529               
G10  27383488.277 6 143901166.242 6       566.908 6        41.338               
G03  24434149.820 8 128402321.552 8       689.955 8        51.253               
> 2012 09 14 12 47 01.0000000  0  5                                             
G06  25389798.946 7 133424314.617 7      -594.627 7        47.993               
G16  25619061.280 8 134629091.743 8     -2828.935 8        49.154               
G19  25590776.421 8 134480439.289 8      2569.097 8        48.326               
G10  27383379.544 7 143900598.617 7       563.025 7        42.336               
G03  24434020.127 8 128401633.459 8       687.561 8        51.085               
> 2012 09 14 12 47 02.0000000  0  5                                             
G06  25389913.182 8 133424910.424 8      -595.838 8        48.439               
G16  25619600.335 8 134631918.540 8     -2829.499 8        50.086               
G19  25590287.561 8 134477868.705 8      2568.631 8        48.113               
G10  27383272.598 7 143900031.586 7       567.782 7        42.237               
G03  24433890.148 8 128400946.055 8       686.943 8        51.453               
> 2012 09 14 12 47 03.0000000  0  5                                             
G06  25390025.972 7 133425506.875 7      -594.214 7        47.903               
G16  25620137.424 8 134634745.547 8     -2826.301 8        49.543               
G19  25589796.538 7 134475298.535 7      2569.689 7        47.193               
G10  27383162.221 7 143899465.112 7       562.375 7        42.092               
G03  24433759.758 8 128400259.334 8       683.900 8        50.396               
> 2012 09 14 12 47 04.0000000  0  5                                             
G06  25390139.869 8 133426103.952 8      -597.592 8        49.861               
G16  25620677.247 8 134637572.760 8     -2827.870 8        49.573               
G19  25589311.465 7 134472728.748 7      2569.402 7        47.845               
G10  27383050.468 6 143898899.243 6       563.498 6        41.999               
G03  24433628.295 8 128399573.301 8       685.582 8        50.754               
> 2012 09 14 12 47 05.0000000  0  5                                             
G06  25390252.676 8 133426701.665 8      -598.297 8        49.173               
G16  25621214.372 8 134640400.178 8     -2826.852 8        48.954               
G19  25588824.445 8 134470159.351 8      2568.949 8        48.891               
G10  27382941.449 7 143898333.932 7       564.932 7        42.471               
G03  24433497.262 8 128398887.948 8       685.896 8        50.552               
> 2012 09 14 12 47 06.0000000  0  5                                             
G06  25390365.304 8 133427300.000 8      -599.009 8        48.182               
G16  25621750.782 8 134643227.798 8     -2826.475 8        49.286               
G19  25588333.976 8 134467590.339 8      2568.797 8        48.995               
G10  27382835.039 7 143897769.190 7       559.478 7        43.516               
G03  24433366.103 8 128398203.280 8       683.786 8        51.325               
> 2012 09 14 12 47 07.0000000  0  5                                             
G06  25390480.041 8 133427898.985 8      -597.733 8        49.153               
G16  25622288.568 8 134646055.627 8     -2827.924 8        50.023               
G19  25587848.564 8 134465021.718 8      2569.257 8        49.417               
G10  27382725.287 7 143897205.026 7       562.476 7        43.994               
G03  24433236.285 8 128397519.283 8       684.126 8        52.172               
> 2012 09 14 12 47 08.0000000  0  5                                             
G06  25390595.404 8 133428498.595 8      -600.439 8        48.832               
G16  25622827.748 8 134648883.670 8     -2829.129 8        49.160               
G19  25587358.024 8 134462453.493 8      2568.517 8        50.011               
G10  27382618.449 7 143896641.434 7       563.867 7        43.628               
G03  24433105.948 8 128396835.981 8       681.624 8        52.609               
> 2012 09 14 12 47 09.0000000  0  5                                             
G06  25390711.249 8 133429098.834 8      -601.015 8        49.199               
G16  25623364.909 8 134651711.918 8     -2827.457 8        48.904               
G19  25586869.109 8 134459885.644 8      2567.523 8        48.974               
G10  27382515.130 7 143896078.414 7       562.643 7        44.200               
G03  24432975.254 8 128396153.362 8       680.548 8        52.491               
> 2012 09 14 12 47 10.0000000  0  5                                             
G06  25390826.790 8 133429699.707 8      -601.784 8        49.403               
G16  25623904.178 8 134654540.368 8     -2827.028 8        48.603               
G19  25586380.606 8 134457318.196 8      2569.221 8        49.005               
G10  27382403.002 7 143895515.976 7       563.245 7        43.688               
G03  24432845.864 8 128395471.414 8       682.911 8        51.029               
> 2012 09 14 12 47 11.0000000  0  5                                             
G06  25390939.239 8 133430301.210 8      -602.503 8        48.874               
G16  25624442.018 8 134657369.038 8     -2827.621 8        48.210               
G19  25585892.174 8 134454751.137 8      2567.840 8        48.071               
G10  27382295.752 7 143894954.094 7       563.010 7        43.735               
G03  24432715.045 8 128394790.162 8       680.776 8        49.554               
> 2012 09 14 12 47 12.0000000  0  5                                             
G06  25391052.869 8 133430903.350 8      -601.739 8        48.171               
G16  25624983.003 8 134660197.906 8     -2829.768 8        49.670               
G19  25585401.687 8 134452184.460 8      2566.748 8        48.844               
G10  27382195.757 7 143894392.821 7       555.418 7        44.334               
G03  24432585.030 8 128394109.593 8       680.137 8        49.542               
> 2012 09 14 12 47 13.0000000  0  5                                             
G06  25391169.285 7 133431506.134 7      -602.677 7        47.871               
G16  25625523.701 8 134663026.981 8     -2830.101 8        49.812               
G19  25584913.952 8 134449618.183 8      2566.122 8        48.862               
G10  27382085.576 7 143893832.094 7       560.662 7        44.135               
G03  24432455.444 8 128393429.709 8       678.707 8        50.336               
> 2012 09 14 12 47 14.0000000  0  5                                             
G06  25391282.593 8 133432109.541 8      -603.570 8        48.287               
G16  25626060.809 8 134665856.254 8     -2827.646 8        50.502               
G19  25584426.128 8 134447052.294 8      2566.531 8        49.327               
G10  27381979.845 7 143893271.960 7       559.774 7        43.833               
G03  24432326.162 8 128392750.503 8       680.815 8        51.170               
> 2012 09 14 12 47 15.0000000  0  5                                             
G06  25391398.134 8 133432713.571 8      -602.527 8        48.850               
G16  25626600.417 8 134668685.738 8     -2829.161 8        49.501               
G19  25583935.820 8 134444486.815 8      2568.368 8        48.911               
G10  27381873.525 7 143892712.392 7       557.256 7        44.417               
G03  24432197.826 8 128392071.988 8       680.748 8        50.843               
> 2012 09 14 12 47 16.0000000  0  5                                             
G06  25391511.173 8 133433318.238 8      -605.963 8        48.687               
G16  25627137.792 8 134671515.427 8     -2831.297 8        50.583               
G19  25583448.907 8 134441921.726 8      2565.133 8        48.679               
G10  27381763.559 7 143892153.392 7       556.551 7        43.778               
G03  24432068.115 8 128391394.159 8       679.234 8        51.420               
> 2012 09 14 12 47 17.0000000  0  5                                             
G06  25391623.784 7 133433923.537 7      -607.709 7        47.976               
G16  25627676.025 8 134674345.321 8     -2830.677 8        49.049               
G19  25582961.029 8 134439357.021 8      2564.932 8        49.710               
G10  27381655.308 7 143891594.977 7       558.722 7        43.372               
G03  24431940.584 8 128390717.016 8       677.183 8        50.927               
> 2012 09 14 12 47 18.0000000  0  5                                             
G06  25391740.272 7 133434529.471 7      -605.234 7        47.702               
G16  25628215.348 8 134677175.416 8     -2829.516 8        50.054               
G19  25582473.348 8 134436792.717 8      2561.639 8        49.195               
G10  27381553.222 7 143891037.117 7       558.002 7        44.119               
G03  24431811.337 8 128390040.550 8       676.817 8        50.677               
> 2012 09 14 12 47 19.0000000  0  5                                             
G06  25391856.582 8 133435136.032 8      -606.811 8        49.053               
G16  25628752.562 8 134680005.713 8     -2831.100 8        49.461               
G19  25581984.398 8 134434228.791 8      2565.443 8        48.636               
G10  27381449.100 7 143890479.835 7       558.952 7        44.515               
G03  24431684.664 8 128389364.769 8       677.159 8        50.962               
> 2012 09 14 12 47 20.0000000  0  5                                             
G06  25391972.426 8 133435743.226 8      -607.081 8        48.224               
G16  25629290.456 8 134682836.209 8     -2827.098 8        49.113               
G19  25581498.324 8 134431665.262 8      2561.983 8        49.299               
G10  27381342.082 7 143889923.135 7       553.630 7        43.529               
G03  24431555.596 8 128388689.667 8       673.870 8        50.439               
> 2012 09 14 12 47 21.0000000  0  5                                             
G06  25392088.682 7 133436351.063 7      -608.492 7        46.982               
G16  25629828.796 8 134685666.911 8     -2829.783 8        49.837               
G19  25581008.660 8 134429102.133 8      2562.933 8        48.138               
G10  27381236.655 7 143889366.993 7       552.130 7        42.773               
G03  24431428.404 8 128388015.259 8       672.623 8        49.507               
> 2012 09 14 12 47 22.0000000  0  5                                             
G06  25392205.939 8 133436959.533 8      -606.750 8        48.511               
G16  25630368.065 8 134688497.826 8     -2829.489 8        50.763               
G19  25580520.120 8 134426539.399 8      2563.278 8        48.836               
G10  27381132.818 7 143888811.430 7       553.400 7        43.445               
G03  24431300.462 8 128387341.539 8       675.958 8        50.043               
> 2012 09 14 12 47 23.0000000  0  5                                             
G06  25392320.068 8 133437568.635 8      -610.707 8        48.389               
G16  25630907.424 8 134691328.942 8     -2829.918 8        48.892               
G19  25580033.082 8 134423977.043 8      2563.125 8        49.907               
G10  27381025.318 7 143888256.439 7       557.919 7        43.641               
G03  24431170.465 8 128386668.509 8       672.472 8        51.122               
> 2012 09 14 12 47 24.0000000  0  5                                             
G06  25392437.557 8 133438178.364 8      -609.299 8        48.821               
G16  25631444.977 8 134694160.262 8     -2830.314 8        49.652               
G19  25579546.080 8 134421415.082 8      2561.645 8        49.254               
G10  27380920.713 7 143887702.025 7       552.638 7        42.482               
G03  24431041.861 8 128385996.160 8       673.900 8        51.020               
> 2012 09 14 12 47 25.0000000  0  5                                             
G06  25392551.115 8 133438788.733 8      -611.689 8        48.524               
G16  25631983.711 8 134696991.786 8     -2831.291 8        49.696               
G19  25579059.739 8 134418853.499 8      2562.075 8        49.144               
G10  27380816.000 7 143887148.186 7       549.622 7        44.304               
G03  24430913.258 8 128385324.504 8       670.198 8        51.012               
> 2012 09 14 12 47 26.0000000  0  5                                             
G06  25392666.316 8 133439399.734 8      -611.733 8        48.948               
G16  25632524.642 8 134699823.518 8     -2831.669 8        50.302               
G19  25578573.004 8 134416292.320 8      2561.269 8        48.759               
G10  27380708.947 7 143886594.923 7       553.874 7        43.677               
G03  24430787.281 8 128384653.528 8       671.295 8        51.127               
> 2012 09 14 12 47 27.0000000  0  5                                             
G06  25392784.699 8 133440011.360 8      -610.520 8        48.533               
G16  25633063.625 8 134702655.455 8     -2831.302 8        50.346               
G19  25578087.718 8 134413731.547 8      2559.878 8        49.285               
G10  27380604.449 7 143886042.240 7       553.884 7        43.727               
G03  24430658.249 8 128383983.247 8       669.225 8        50.907               
> 2012 09 14 12 47 28.0000000  0  5                                             
G06  25392900.901 8 133440623.631 8      -614.774 8        49.160               
G16  25633601.947 8 134705487.600 8     -2832.568 8        49.560               
G19  25577600.054 8 134411171.163 8      2560.474 8        49.382               
G10  27380499.576 7 143885490.126 7       550.193 7        44.059               
G03  24430532.130 8 128383313.652 8       669.429 8        50.577               
> 2012 09 14 12 47 29.0000000  0  5                                             
G06  25393020.534 8 133441236.531 8      -613.648 8        49.268               
G16  25634141.467 8 134708319.947 8     -2834.323 8        50.032               
G19  25577111.479 8 134408611.161 8      2561.237 8        49.937               
G10  27380396.382 7 143884938.603 7       550.690 7        43.378               
G03  24430405.009 8 128382644.739 8       669.341 8        49.474               
> 2012 09 14 12 47 30.0000000  0  5                                             
G06  25393137.862 8 133441850.057 8      -613.887 8        49.890               
G16  25634680.950 8 134711152.494 8     -2835.056 8        49.748               
G19  25576622.190 8 134406051.561 8      2561.986 8        48.795               
G10  27380290.294 7 143884387.639 7       550.875 7        44.006               
G03  24430279.622 8 128381976.515 8       669.103 8        50.154               
> 2012 09 14 12 47 31.0000000  0  5                                             
G06  25393256.208 8 133442464.213 8      -615.943 8        49.178               
G16  25635220.720 8 134713985.247 8     -2831.964 8        50.438               
G19  25576136.313 8 134403492.341 8      2561.286 8        48.754               
G10  27380182.686 7 143883837.249 7       554.378 7        44.221               
G03  24430152.985 8 128381308.975 8       667.961 8        50.480               
> 2012 09 14 12 47 32.0000000  0  5                                             
G06  25393372.107 8 133443078.995 8      -614.465 8        49.869               
G16  25635759.435 8 134716818.209 8     -2833.143 8        50.874               
G19  25575647.863 7 134400933.528 7      2556.813 7        47.741               
G10  27380078.992 7 143883287.441 7       550.247 7        43.590               
G03  24430024.721 8 128380642.118 8       667.149 8        51.571               
> 2012 09 14 12 47 33.0000000  0  5                                             
G06  25393488.363 8 133443694.422 8      -615.217 8        49.642               
G16  25636297.489 8 134719651.374 8     -2833.879 8        51.455               
G19  25575161.504 8 134398375.091 8      2559.009 8        48.744               
G10  27379978.014 7 143882738.187 7       547.892 7        43.453               
G03  24429898.887 8 128379975.945 8       665.254 8        51.250               
> 2012 09 14 12 47 34.0000000  0  5                                             
G06  25393603.993 8 133444310.472 8      -615.045 8        49.105               
G16  25636838.885 8 134722484.743 8     -2835.096 8        50.708               
G19  25574675.788 8 134395817.061 8      2557.822 8        48.314               
G10  27379873.463 7 143882189.520 7       547.211 7        43.665               
G03  24429771.874 8 128379310.463 8       665.010 8        50.052               
> 2012 09 14 12 47 35.0000000  0  5                                             
G06  25393723.716 8 133444927.153 8      -617.632 8        49.036               
G16  25637377.833 8 134725318.322 8     -2833.825 8        49.975               
G19  25574189.394 8 134393259.424 8      2556.067 8        48.013               
G10  27379767.571 7 143881641.422 7       548.235 7        43.673               
G03  24429644.647 8 128378645.669 8       664.745 8        49.378               
> 2012 09 14 12 47 36.0000000  0  5                                             
G06  25393841.187 8 133445544.471 8      -617.337 8        49.587               
G16  25637916.619 8 134728152.096 8     -2833.365 8        50.074               
G19  25573704.732 8 134390702.179 8      2556.466 8        48.260               
G10  27379662.037 7 143881093.904 7       547.523 7        43.343               
G03  24429516.025 8 128377981.563 8       666.649 8        48.705               
> 2012 09 14 12 47 37.0000000  0  5                                             
G06  25393957.996 8 133446162.409 8      -615.825 8        49.480               
G16  25638456.478 8 134730986.078 8     -2832.126 8        50.327               
G19  25573218.284 7 134388145.323 7      2556.043 7        47.806               
G10  27379559.969 7 143880546.941 7       546.475 7        43.093               
G03  24429388.512 8 128377318.140 8       663.840 8        51.000               
> 2012 09 14 12 47 38.0000000  0  5                                             
G06  25394073.412 8 133446780.990 8      -616.915 8        49.223               
G16  25638994.443 8 134733820.263 8     -2834.450 8        49.734               
G19  25572731.728 8 134385588.865 8      2555.640 8        49.623               
G10  27379452.683 7 143880000.563 7       543.435 7        43.147               
G03  24429262.839 8 128376655.402 8       663.505 8        50.491               
> 2012 09 14 12 47 39.0000000  0  5                                             
G06  25394190.330 8 133447400.211 8      -620.977 8        48.489               
G16  25639533.051 8 134736654.656 8     -2835.028 8        49.848               
G19  25572245.512 8 134383032.805 8      2557.185 8        49.948               
G10  27379352.098 7 143879454.746 7       545.087 7        42.960               
G03  24429135.469 8 128375993.356 8       661.820 8        50.273               
> 2012 09 14 12 47 40.0000000  0  5                                             
G06  25394310.445 8 133448020.057 8      -620.403 8        48.346               
G16  25640069.569 8 134739489.251 8     -2836.527 8        49.689               
G19  25571759.671 8 134380477.136 8      2555.457 8        49.236               
G10  27379251.406 7 143878909.522 7       543.722 7        43.736               
G03  24429011.726 8 128375331.997 8       659.374 8        50.511               
> 2012 09 14 12 47 41.0000000  0  5                                             
G06  25394428.756 7 133448640.541 7      -622.606 7        47.807               
G16  25640609.213 8 134742324.054 8     -2835.339 8        49.734               
G19  25571273.652 8 134377921.868 8      2553.661 8        48.915               
G10  27379146.551 7 143878364.852 7       546.067 7        44.169               
G03  24428885.606 8 128374671.323 8       659.956 8        50.372               
> 2012 09 14 12 47 42.0000000  0  5                                             
G06  25394547.335 7 133449261.639 7      -621.131 7        47.971               
G16  25641146.910 8 134745159.057 8     -2835.715 8        50.120               
G19  25570785.970 8 134375366.989 8      2553.067 8        48.978               
G10  27379039.158 7 143877820.754 7       540.190 7        44.390               
G03  24428761.363 8 128374011.332 8       658.398 8        50.591               
> 2012 09 14 12 47 43.0000000  0  5                                             
G06  25394666.360 7 133449883.390 7      -621.248 7        47.637               
G16  25641684.464 8 134747994.264 8     -2833.615 8        50.436               
G19  25570297.092 8 134372812.499 8      2552.222 8        49.669               
G10  27378939.717 7 143877277.233 7       543.575 7        43.887               
G03  24428636.316 8 128373352.029 8       659.034 8        50.652               
> 2012 09 14 12 47 44.0000000  0  5                                             
G06  25394783.921 7 133450505.771 7      -622.349 7        46.959               
G16  25642226.878 8 134750829.679 8     -2837.148 8        49.896               
G19  25569810.661 8 134370258.413 8      2553.375 8        49.998               
G10  27378834.254 7 143876734.290 7       539.555 7        44.181               
G03  24428511.161 8 128372693.421 8       658.221 8        50.911               
> 2012 09 14 12 47 45.0000000  0  5                                             
G06  25394901.266 7 133451128.795 7      -622.093 7        47.625               
G16  25642765.665 8 134753665.286 8     -2837.123 8        49.611               
G19  25569323.355 8 134367704.717 8      2553.647 8        50.245               
G10  27378731.311 7 143876191.915 7       542.381 7        43.312               
G03  24428385.470 8 128372035.496 8       656.800 8        50.449               
> 2012 09 14 12 47 46.0000000  0  5                                             
G06  25395021.328 7 133451752.433 7      -623.657 7        47.385               
G16  25643305.577 8 134756501.103 8     -2835.635 8        49.755               
G19  25568833.636 8 134365151.408 8      2554.110 8        49.565               
G10  27378629.725 7 143875650.117 7       542.172 7        42.484               
G03  24428259.922 8 128371378.261 8       658.833 8        51.120               
> 2012 09 14 12 47 47.0000000  0  5                                             
G06  25395140.729 7 133452376.702 7      -626.711 7        46.759               
G16  25643844.525 8 134759337.112 8     -2834.640 8        49.464               
G19  25568349.600 7 134362598.494 7      2553.957 7        47.862               
G10  27378520.474 7 143875108.881 7       542.440 7        43.750               
G03  24428134.643 8 128370721.718 8       657.070 8        51.037               
> 2012 09 14 12 47 48.0000000  0  5                                             
G06  25395258.522 7 133453001.590 7      -623.283 7        46.265               
G16  25644383.758 8 134762173.332 8     -2835.077 8        49.632               
G19  25567863.724 8 134360045.975 8      2550.669 8        48.950               
G10  27378419.603 7 143874568.243 7       540.922 7        44.518               
G03  24428009.828 8 128370065.862 8       656.728 8        51.919               
> 2012 09 14 12 47 49.0000000  0  5                                             
G06  25395376.922 7 133453627.132 7      -625.898 7        46.501               
G16  25644922.902 8 134765009.749 8     -2836.578 8        48.606               
G19  25567379.402 7 134357493.834 7      2550.972 7        47.798               
G10  27378315.624 7 143874028.167 7       539.758 7        44.074               
G03  24427885.173 8 128369410.691 8       653.698 8        51.766               
> 2012 09 14 12 47 50.0000000  0  5                                             
G06  25395493.893 7 133454253.301 7      -625.959 7        46.325               
G16  25645462.976 8 134767846.373 8     -2836.939 8        48.863               
G19  25566895.723 7 134354942.104 7      2551.156 7        47.397               
G10  27378211.912 7 143873488.667 7       538.642 7        43.949               
G03  24427758.446 8 128368756.203 8       652.837 8        50.655               
> 2012 09 14 12 47 51.0000000  0  5                                             
G06  25395614.491 7 133454880.091 7      -628.606 7        47.553               
G16  25646003.264 8 134770683.193 8     -2836.517 8        49.129               
G19  25566410.651 7 134352390.773 7      2550.415 7        47.294               
G10  27378114.043 7 143872949.735 7       537.714 7        44.271               
G03  24427634.650 8 128368102.391 8       654.474 8        50.910               
> 2012 09 14 12 47 52.0000000  0  5                                             
G06  25395737.430 8 133455507.528 8      -630.075 8        48.145               
G16  25646542.908 8 134773520.211 8     -2839.392 8        48.938               
G19  25565926.704 8 134349839.832 8      2552.247 8        48.741               
G10  27378011.403 7 143872411.385 7       540.175 7        43.188               
G03  24427509.799 8 128367449.271 8       652.561 8        51.736               
> 2012 09 14 12 47 53.0000000  0  5                                             
G06  25395855.740 8 133456135.598 8      -627.130 8        48.576               
G16  25647085.805 8 134776357.440 8     -2836.542 8        48.600               
G19  25565442.257 8 134347289.287 8      2547.869 8        49.756               
G10  27377909.925 7 143871873.607 7       535.628 7        44.367               
G03  24427385.770 8 128366796.837 8       652.657 8        50.683               
> 2012 09 14 12 47 54.0000000  0  5                                             
G06  25395975.749 8 133456764.307 8      -629.430 8        48.804               
G16  25647623.412 8 134779194.875 8     -2839.041 8        48.146               
G19  25564959.132 8 134344739.147 8      2548.645 8        50.309               
G10  27377809.412 7 143871336.398 7       538.140 7        43.951               
G03  24427262.849 8 128366145.091 8       653.025 8        51.219               
> 2012 09 14 12 47 55.0000000  0  5                                             
G06  25396094.846 8 133457393.644 8      -628.267 8        48.208               
G16  25648163.629 8 134782032.506 8     -2839.494 8        48.135               
G19  25564473.881 8 134342189.381 8      2550.947 8        48.867               
G10  27377705.647 7 143870799.762 7       535.610 7        43.783               
G03  24427137.837 8 128365494.033 8       651.174 8        51.153               
> 2012 09 14 12 47 56.0000000  0  5                                             
G06  25396212.067 8 133458023.619 8      -631.615 8        48.348               
G16  25648704.953 8 134784870.338 8     -2836.883 8        48.913               
G19  25563988.576 8 134339640.024 8      2548.944 8        48.388               
G10  27377604.454 7 143870263.703 7       535.990 7        44.010               
G03  24427015.309 8 128364843.659 8       649.834 8        51.020               
> 2012 09 14 12 47 57.0000000  0  5                                             
G06  25396332.950 8 133458654.222 8      -630.641 8        49.676               
G16  25649244.276 8 134787708.379 8     -2841.889 8        48.818               
G19  25563504.397 8 134337091.068 8      2547.537 8        48.853               
G10  27377501.493 7 143869728.219 7       535.862 7        44.889               
G03  24426891.656 8 128364193.968 8       647.262 8        50.638               
> 2012 09 14 12 47 58.0000000  0  5                                             
G06  25396453.334 8 133459285.475 8      -632.407 8        50.257               
G16  25649786.422 8 134790546.616 8     -2838.662 8        48.432               
G19  25563019.771 8 134334542.499 8      2550.004 8        49.127               
G10  27377398.692 7 143869193.306 7       536.948 7        44.223               
G03  24426767.251 8 128363544.974 8       649.829 8        51.851               
> 2012 09 14 12 47 59.0000000  0  5                                             
G06  25396574.021 8 133459917.343 8      -630.899 8        49.245               
G16  25650325.298 7 134793385.055 7     -2837.724 7        47.633               
G19  25562532.769 8 134331994.322 8      2550.762 8        49.287               
G10  27377297.375 7 143868658.968 7       529.419 7        44.505               
G03  24426645.671 8 128362896.666 8       646.013 8        51.460               
> 2012 09 14 12 48 00.0000000  0  5                                             
G06  25396694.191 8 133460549.835 8      -631.570 8        48.443               
G16  25650863.674 8 134796223.697 8     -2838.934 8        48.193               
G19  25562045.999 8 134329446.549 8      2546.387 8        48.573               
G10  27377195.504 7 143868125.196 7       534.006 7        44.337               
G03  24426521.803 8 128362249.048 8       645.625 8        51.327               
> 2012 09 14 12 48 01.0000000  0  5                                             
G06  25396814.860 8 133461182.967 8      -633.647 8        48.854               
G16  25651403.658 7 134799062.541 7     -2839.634 7        47.750               
G19  25561561.659 8 134326899.172 8      2546.876 8        48.399               
G10  27377093.114 7 143867591.999 7       534.054 7        43.835               
G03  24426399.739 8 128361602.114 8       647.145 8        50.960               
> 2012 09 14 12 48 02.0000000  0  5                                             
G06  25396933.921 8 133461816.727 8      -632.936 8        48.912               
G16  25651942.123 8 134801901.581 8     -2836.219 8        48.328               
G19  25561077.301 7 134324352.187 7      2546.314 7        47.979               
G10  27376988.366 7 143867059.389 7       531.202 7        44.343               
G03  24426277.408 8 128360955.861 8       646.523 8        51.147               
> 2012 09 14 12 48 03.0000000  0  5                                             
G06  25397055.609 8 133462451.109 8      -635.861 8        48.167               
G16  25652482.107 7 134804740.831 7     -2838.574 7        47.917               
G19  25560591.728 7 134321805.600 7      2548.016 7        47.789               
G10  27376890.265 7 143866527.355 7       531.299 7        44.382               
G03  24426155.970 8 128360310.301 8       645.365 8        51.603               
> 2012 09 14 12 48 04.0000000  0  5                                             
G06  25397175.689 7 133463086.127 7      -637.114 7        47.303               
G16  25653022.091 7 134807580.285 7     -2837.784 7        47.699               
G19  25560107.424 8 134319259.411 8      2545.297 8        48.433               
G10  27376787.822 7 143865995.894 7       528.967 7        43.692               
G03  24426030.923 8 128359665.428 8       644.021 8        50.652               
> 2012 09 14 12 48 05.0000000  0  5                                             
G06  25397297.502 7 133463721.771 7      -634.402 7        47.488               
G16  25653561.056 8 134810419.938 8     -2837.585 8        48.238               
G19  25559621.851 8 134316713.628 8      2546.753 8        48.011               
G10  27376685.004 7 143865464.990 7       531.109 7        43.610               
G03  24425909.806 8 128359021.237 8       643.540 8        50.260               
> 2012 09 14 12 48 06.0000000  0  5                                             
G06  25397419.601 7 133464358.055 7      -634.186 7        47.795               
G16  25654102.077 8 134813259.784 8     -2838.732 8        48.367               
G19  25559137.565 8 134314168.236 8      2548.323 8        48.067               
G10  27376582.918 7 143864934.669 7       533.167 7        42.912               
G03  24425787.636 8 128358377.733 8       642.767 8        50.593               
> 2012 09 14 12 48 07.0000000  0  5                                             
G06  25397540.253 7 133464994.960 7      -638.686 7        47.904               
G16  25654642.132 7 134816099.839 7     -2841.538 7        47.986               
G19  25558653.082 8 134311623.240 8      2541.806 8        48.191               
G10  27376484.674 7 143864404.917 7       532.430 7        43.315               
G03  24425665.501 8 128357734.918 8       644.822 8        51.348               
> 2012 09 14 12 48 08.0000000  0  5                                             
G06  25397662.852 8 133465632.500 8      -637.808 8        49.026               
G16  25655182.509 8 134818940.088 8     -2839.677 8        48.319               
G19  25558168.028 8 134309078.638 8      2546.256 8        48.379               
G10  27376382.052 7 143863875.737 7       529.755 7        43.764               
G03  24425541.919 8 128357092.783 8       643.371 8        51.610               
> 2012 09 14 12 48 09.0000000  0  5                                             
G06  25397785.505 8 133466270.670 8      -639.174 8        49.865               
G16  25655722.940 8 134821780.540 8     -2839.306 8        48.313               
G19  25557681.597 8 134306534.448 8      2545.072 8        48.764               
G10  27376285.238 7 143863347.134 7       525.877 7        44.144               
G03  24425419.302 8 128356451.332 8       641.166 8        51.550               
> 2012 09 14 12 48 10.0000000  0  5                                             
G06  25397909.248 8 133466909.476 8      -639.610 8        50.124               
G16  25656264.907 8 134824621.192 8     -2841.866 8        48.144               
G19  25557199.580 8 134303990.645 8      2543.765 8        48.281               
G10  27376187.191 7 143862819.091 7       531.169 7        44.288               
G03  24425295.898 8 128355810.570 8       640.375 8        50.935               
> 2012 09 14 12 48 11.0000000  0  5                                             
G06  25398028.185 8 133467548.920 8      -641.454 8        50.409               
G16  25656806.500 8 134827462.045 8     -2840.801 8        48.357               
G19  25556713.757 8 134301447.254 8      2542.605 8        48.603               
G10  27376084.033 7 143862291.635 7       527.133 7        44.526               
G03  24425175.050 8 128355170.496 8       640.131 8        49.929               
> 2012 09 14 12 48 12.0000000  0  5                                             
G06  25398150.659 8 133468188.992 8      -641.150 8        49.820               
G16  25657347.145 7 134830303.095 7     -2839.905 7        47.955               
G19  25556231.562 8 134298904.246 8      2541.727 8        48.865               
G10  27375985.896 7 143861764.772 7       524.333 7        43.553               
G03  24425053.594 8 128354531.116 8       638.497 8        51.271               
> 2012 09 14 12 48 13.0000000  0  5                                             
G06  25398273.741 8 133468829.692 8      -640.732 8        50.103               
G16  25657886.914 8 134833144.348 8     -2844.759 8        48.152               
G19  25555745.649 8 134296361.637 8      2543.172 8        49.695               
G10  27375882.327 7 143861238.457 7       528.459 7        44.746               
G03  24424931.174 8 128353892.421 8       639.260 8        51.406               
> 2012 09 14 12 48 14.0000000  0  5                                             
G06  25398393.320 8 133469471.033 8      -641.547 8        50.012               
G16  25658428.650 8 134835985.799 8     -2842.486 8        49.023               
G19  25555262.935 8 134293819.427 8      2543.219 8        48.289               
G10  27375784.655 7 143860712.723 7       524.115 7        45.734               
G03  24424812.023 8 128353254.414 8       637.372 8        50.862               
> 2012 09 14 12 48 15.0000000  0  5                                             
G06  25398514.079 8 133470113.004 8      -641.557 8        49.430               
G16  25658968.562 8 134838827.451 8     -2839.588 8        48.438               
G19  25554778.721 8 134291277.614 8      2539.449 8        48.987               
G10  27375686.411 7 143860187.566 7       521.873 7        45.441               
G03  24424689.942 8 128352617.097 8       635.563 8        50.613               
> 2012 09 14 12 48 16.0000000  0  5                                             
G06  25398636.625 8 133470755.610 8      -642.937 8        49.573               
G16  25659508.653 8 134841669.301 8     -2841.737 8        48.288               
G19  25554295.489 8 134288736.200 8      2537.321 8        49.303               
G10  27375585.862 7 143859662.979 7       522.777 7        44.871               
G03  24424570.487 8 128351980.461 8       636.184 8        51.531               
> 2012 09 14 12 48 17.0000000  0  5                                             
G06  25398759.707 8 133471398.865 8      -643.889 8        48.799               
G16  25660052.050 8 134844511.349 8     -2841.624 8        48.413               
G19  25553814.347 8 134286195.185 8      2539.914 8        48.457               
G10  27375485.420 7 143859138.953 7       526.778 7        44.855               
G03  24424448.853 8 128351344.516 8       636.457 8        51.665               
> 2012 09 14 12 48 18.0000000  0  5                                             
G06  25398881.288 8 133472042.752 8      -643.143 8        49.289               
G16  25660591.087 8 134847353.595 8     -2840.260 8        49.173               
G19  25553331.383 8 134283654.566 8      2539.251 8        48.389               
G10  27375386.462 7 143858615.526 7       524.595 7        44.584               
G03  24424327.201 8 128350709.259 8       635.122 8        51.458               
> 2012 09 14 12 48 19.0000000  0  5                                             
G06  25399005.120 8 133472687.261 8      -643.274 8        49.897               
G16  25661130.607 8 134850196.041 8     -2843.586 8        49.072               
G19  25552846.043 8 134281114.346 8      2540.509 8        48.963               
G10  27375288.432 7 143858092.667 7       516.515 7        44.448               
G03  24424208.336 8 128350074.692 8       632.918 8        51.432               
> 2012 09 14 12 48 20.0000000  0  5                                             
G06  25399126.915 8 133473332.398 8      -644.851 8        49.835               
G16  25661674.897 8 134853038.694 8     -2840.801 8        49.321               
G19  25552363.043 8 134278574.536 8      2538.240 8        48.727               
G10  27375186.704 7 143857570.369 7       524.500 7        44.512               
G03  24424085.987 8 128349440.815 8       632.550 8        51.664               
> 2012 09 14 12 48 21.0000000  0  5                                             
G06  25399249.300 8 133473978.162 8      -645.512 8        50.087               
G16  25662215.810 8 134855881.535 8     -2841.854 8        49.035               
G19  25551880.562 8 134276035.125 8      2538.417 8        48.804               
G10  27375085.476 7 143857048.664 7       518.031 7        43.501               
G03  24423966.246 8 128348807.620 8       632.556 8        51.395               
> 2012 09 14 12 48 22.0000000  0  5                                             
G06  25399375.241 8 133474624.552 8      -646.087 8        49.572               
G16  25662756.366 8 134858724.582 8     -2843.354 8        49.891               
G19  25551396.007 8 134273496.112 8      2539.524 8        48.500               
G10  27374987.375 7 143856527.514 7       525.724 7        43.367               
G03  24423846.381 8 128348175.111 8       634.138 8        51.870               
> 2012 09 14 12 48 23.0000000  0  5                                             
G06  25399498.805 8 133475271.596 8      -646.261 8        50.008               
G16  25663297.851 8 134861567.836 8     -2844.049 8        49.704               
G19  25550912.918 8 134270957.501 8      2538.102 8        48.478               
G10  27374887.720 7 143856006.953 7       519.654 7        43.098               
G03  24423726.516 8 128347543.299 8       630.368 8        51.296               
> 2012 09 14 12 48 24.0000000  0  5                                             
G06  25399623.406 8 133475919.273 8      -648.416 8        48.956               
G16  25663841.123 8 134864411.287 8     -2843.821 8        49.365               
G19  25550431.938 8 134268419.290 8      2540.638 8        49.026               
G10  27374790.869 7 143855486.961 7       519.534 7        43.500               
G03  24423606.150 8 128346912.176 8       632.197 8        51.089               
> 2012 09 14 12 48 25.0000000  0  5                                             
G06  25399746.327 8 133476567.575 8      -647.883 8        49.500               
G16  25664381.500 8 134867254.941 8     -2845.020 8        49.851               
G19  25549949.045 8 134265881.474 8      2536.023 8        48.606               
G10  27374690.821 7 143854967.548 7       518.495 7        43.803               
G03  24423485.409 8 128346281.739 8       631.329 8        51.246               
> 2012 09 14 12 48 26.0000000  0  5                                             
G06  25399869.159 8 133477216.503 8      -648.777 8        49.301               
G16  25664924.397 8 134870098.791 8     -2845.706 8        50.275               
G19  25549465.206 8 134263344.058 8      2535.536 8        48.195               
G10  27374594.131 7 143854448.701 7       515.884 7        44.549               
G03  24423364.704 8 128345651.988 8       627.013 8        51.024               
> 2012 09 14 12 48 27.0000000  0  5                                             
G06  25399993.813 8 133477866.067 8      -651.365 8        49.835               
G16  25665466.311 8 134872942.837 8     -2843.172 8        49.068               
G19  25548982.671 8 134260807.045 8      2535.605 8        48.422               
G10  27374492.635 7 143853930.430 7       516.202 7        44.517               
G03  24423245.142 8 128345022.926 8       627.075 8        50.748               
> 2012 09 14 12 48 28.0000000  0  5                                             
G06  25400117.109 8 133478516.254 8      -647.281 8        49.186               
G16  25666007.671 8 134875787.087 8     -2844.684 8        49.762               
G19  25548500.904 7 134258270.421 7      2537.642 7        47.257               
G10  27374394.695 7 143853412.733 7       520.511 7        43.864               
G03  24423126.331 8 128344394.547 8       626.688 8        50.694               
> 2012 09 14 12 48 29.0000000  0  5                                             
G06  25400241.370 8 133479167.077 8      -654.637 8        48.771               
G16  25666550.728 8 134878631.530 8     -2845.232 8        50.193               
G19  25548019.173 8 134255734.204 8      2537.214 8        48.549               
G10  27374293.021 7 143852895.603 7       514.496 7        42.731               
G03  24423004.285 8 128343766.853 8       627.732 8        50.778               
> 2012 09 14 12 48 30.0000000  0  5                                             
G06  25400363.952 8 133479818.520 8      -651.401 8        48.490               
G16  25667087.835 8 134881476.173 8     -2844.640 8        49.382               
G19  25547538.425 8 134253198.380 8      2533.076 8        48.470               
G10  27374192.168 7 143852379.062 7       515.414 7        42.095               
G03  24422884.920 8 128343139.864 8       625.114 8        50.122               
> 2012 09 14 12 48 31.0000000  0  5                                             
G06  25400486.962 8 133480470.594 8      -651.398 8        48.214               
G16  25667630.357 8 134884321.021 8     -2843.524 8        49.079               
G19  25547052.727 8 134250662.963 8      2535.532 8        48.200               
G10  27374098.677 7 143851863.080 7       515.649 7        42.905               
G03  24422766.645 8 128342513.555 8       627.730 8        50.588               
> 2012 09 14 12 48 32.0000000  0  5                                             
G06  25400609.079 8 133481123.309 8      -652.820 8        48.249               
G16  25668171.967 8 134887166.064 8     -2845.200 8        50.315               
G19  25546572.372 8 134248127.941 8      2534.204 8        48.124               
G10  27374001.309 7 143851347.674 7       514.762 7        43.986               
G03  24422649.978 8 128341887.937 8       627.566 8        51.203               
> 2012 09 14 12 48 33.0000000  0  5                                             
G06  25400731.178 7 133481776.647 7      -653.691 7        47.963               
G16  25668714.149 8 134890011.311 8     -2846.483 8        49.532               
G19  25546089.051 8 134245593.335 8      2534.588 8        48.864               
G10  27373904.530 7 143850832.844 7       516.798 7        44.535               
G03  24422530.828 8 128341263.016 8       624.920 8        50.499               
> 2012 09 14 12 48 34.0000000  0  5                                             
G06  25400854.206 8 133482430.622 8      -653.185 8        49.403               
G16  25669253.311 8 134892856.752 8     -2845.672 8        49.403               
G19  25545605.586 8 134243059.120 8      2534.142 8        48.889               
G10  27373807.287 7 143850318.588 7       512.418 7        45.191               
G03  24422412.320 8 128340638.774 8       623.161 8        51.560               
> 2012 09 14 12 48 35.0000000  0  5                                             
G06  25400981.362 8 133483085.239 8      -651.643 8        49.137               
G16  25669795.099 8 134895702.398 8     -2846.972 8        49.634               
G19  25545123.748 8 134240525.316 8      2532.608 8        48.304               
G10  27373710.633 7 143849804.902 7       511.320 7        44.413               
G03  24422295.028 8 128340015.227 8       623.619 8        50.810               
> 2012 09 14 12 48 36.0000000  0  5                                             
G06  25401107.375 8 133483740.481 8      -656.952 8        49.716               
G16  25670336.245 8 134898548.239 8     -2846.022 8        48.882               
G19  25544641.606 8 134237991.898 8      2533.935 8        48.295               
G10  27373614.873 7 143849291.801 7       509.809 7        44.551               
G03  24422176.842 8 128339392.361 8       623.275 8        50.493               
> 2012 09 14 12 48 37.0000000  0  5                                             
G06  25401230.742 8 133484396.350 8      -654.151 8        48.139               
G16  25670875.979 8 134901394.271 8     -2846.750 8        49.069               
G19  25544158.374 7 134235458.881 7      2532.247 7        47.941               
G10  27373517.112 7 143848779.250 7       513.067 7        45.138               
G03  24422057.960 8 128338770.188 8       619.073 8        49.442               
> 2012 09 14 12 48 38.0000000  0  5                                             
G06  25401355.307 8 133485052.849 8      -656.165 8        48.716               
G16  25671417.071 8 134904240.507 8     -2846.270 8        48.664               
G19  25543674.767 8 134232926.272 8      2532.705 8        48.181               
G10  27373418.761 7 143848267.287 7       507.444 7        44.906               
G03  24421939.685 8 128338148.700 8       619.939 8        49.606               
> 2012 09 14 12 48 39.0000000  0  5                                             
G06  25401483.214 8 133485709.975 8      -656.681 8        48.796               
G16  25671955.643 8 134907086.945 8     -2846.115 8        49.217               
G19  25543192.893 7 134230394.059 7      2532.698 7        47.944               
G10  27373321.553 7 143847755.891 7       514.043 7        44.108               
G03  24421821.088 8 128337527.898 8       621.499 8        50.617               
> 2012 09 14 12 48 40.0000000  0  5                                             
G06  25401608.672 8 133486367.735 8      -660.148 8        48.008               
G16  25672499.594 8 134909933.576 8     -2845.982 8        49.272               
G19  25542711.734 7 134227862.252 7      2531.436 7        47.574               
G10  27373221.665 7 143847245.081 7       511.996 7        45.462               
G03  24421701.991 8 128336907.786 8       618.888 8        51.290               
> 2012 09 14 12 48 41.0000000  0  5                                             
G06  25401732.683 8 133487026.129 8      -657.174 8        48.008               
G16  25673041.186 8 134912780.411 8     -2846.836 8        48.647               
G19  25542230.056 7 134225330.846 7      2529.494 7        47.335               
G10  27373123.064 7 143846734.837 7       511.393 7        45.973               
G03  24421582.822 8 128336288.361 8       619.094 8        51.158               
> 2012 09 14 12 48 42.0000000  0  5                                             
G06  25401857.230 8 133487685.156 8      -659.953 8        48.964               
G16  25673582.725 8 134915627.438 8     -2847.371 8        50.222               
G19  25541747.414 7 134222799.831 7      2532.629 7        47.593               
G10  27373030.556 7 143846225.173 7       510.584 7        45.548               
G03  24421464.547 8 128335669.625 8       618.920 8        51.787               
> 2012 09 14 12 48 43.0000000  0  5                                             
G06  25401981.349 8 133488344.826 8      -661.244 8        48.473               
G16  25674124.138 8 134918474.661 8     -2847.126 8        48.750               
G19  25541266.898 8 134220269.225 8      2530.219 8        48.229               
G10  27372934.993 7 143845716.075 7       508.193 7        44.940               
G03  24421347.613 8 128335051.577 8       619.553 8        51.573               
> 2012 09 14 12 48 44.0000000  0  5                                             
G06  25402104.377 8 133489005.113 8      -661.391 8        48.863               
G16  25674666.535 8 134921322.082 8     -2847.828 8        49.068               
G19  25540782.397 7 134217739.020 7      2528.546 7        47.885               
G10  27372835.337 7 143845207.545 7       508.306 7        45.204               
G03  24421229.552 8 128334434.211 8       616.441 8        51.235               
> 2012 09 14 12 48 45.0000000  0  5                                             
G06  25402231.372 8 133489666.036 8      -659.529 8        48.954               
G16  25675208.520 8 134924169.707 8     -2846.608 8        49.021               
G19  25540304.669 8 134215209.221 8      2526.923 8        48.403               
G10  27372744.152 7 143844699.595 7       508.145 7        44.977               
G03  24421113.010 8 128333817.539 8       614.925 8        50.223               
> 2012 09 14 12 48 46.0000000  0  5                                             
G06  25402357.509 8 133490327.582 8      -662.526 8        49.541               
G16  25675750.934 8 134927017.525 8     -2848.388 8        49.744               
G19  25539824.243 8 134212679.819 8      2530.214 8        49.152               
G10  27372645.747 7 143844192.208 7       507.148 7        44.675               
G03  24420994.824 8 128333201.555 8       615.654 8        50.806               
> 2012 09 14 12 48 47.0000000  0  5                                             
G06  25402484.129 8 133490989.769 8      -661.638 8        49.021               
G16  25676291.937 8 134929865.546 8     -2848.836 8        49.153               
G19  25539341.511 8 134210150.814 8      2527.203 8        48.776               
G10  27372553.132 7 143843685.403 7       504.556 7        44.487               
G03  24420878.015 8 128332586.254 8       615.106 8        51.201               
> 2012 09 14 12 48 48.0000000  0  5                                             
G06  25402610.571 8 133491652.578 8      -661.794 8        48.944               
G16  25676835.387 8 134932713.769 8     -2850.094 8        49.259               
G19  25538860.924 7 134207622.212 7      2528.768 7        47.608               
G10  27372455.066 7 143843179.167 7       505.635 7        44.124               
G03  24420760.687 8 128331971.643 8       612.784 8        50.132               
> 2012 09 14 12 48 49.0000000  0  5                                             
G06  25402738.012 7 133492316.025 7      -665.715 7        47.837               
G16  25677378.302 8 134935562.176 8     -2847.012 8        49.645               
G19  25538378.335 7 134205094.017 7      2528.817 7        47.833               
G10  27372355.179 7 143842673.498 7       506.742 7        44.522               
G03  24420644.109 8 128331357.721 8       613.675 8        50.520               
> 2012 09 14 12 48 50.0000000  0  5                                             
G06  25402864.865 8 133492980.102 8      -663.013 8        48.460               
G16  25677920.394 8 134938410.784 8     -2846.494 8        48.224               
G19  25537896.175 8 134202566.228 8      2528.370 8        48.052               
G10  27372262.474 7 143842168.405 7       503.535 7        44.633               
G03  24420527.013 8 128330744.496 8       613.453 8        50.279               
> 2012 09 14 12 48 51.0000000  0  5                                             
G06  25402993.075 8 133493644.815 8      -663.852 8        49.288               
G16  25678462.665 8 134941259.591 8     -2847.435 8        48.386               
G19  25537417.035 8 134200038.848 8      2528.414 8        48.328               
G10  27372162.497 7 143841663.896 7       502.380 7        43.063               
G03  24420410.347 8 128330131.962 8       612.949 8        51.220               
> 2012 09 14 12 48 52.0000000  0  5                                             
G06  25403121.196 8 133494310.158 8      -666.116 8        48.899               
G16  25679006.527 8 134944108.597 8     -2849.072 8        49.201               
G19  25536936.698 8 134197511.870 8      2526.165 8        48.787               
G10  27372064.736 7 143841159.959 7       501.973 7        43.224               
G03  24420293.465 8 128329520.117 8       613.967 8        51.220               
> 2012 09 14 12 48 53.0000000  0  5                                             
G06  25403248.673 7 133494976.143 7      -666.719 7        47.863               
G16  25679549.710 8 134946957.794 8     -2849.425 8        49.511               
G19  25536456.807 8 134194985.290 8      2526.504 8        48.709               
G10  27371968.153 7 143840656.601 7       501.527 7        44.049               
G03  24420177.585 8 128328908.967 8       610.518 8        50.833               
> 2012 09 14 12 48 54.0000000  0  5                                             
G06  25403376.741 8 133495642.760 8      -668.076 8        48.985               
G16  25680092.142 8 134949807.193 8     -2847.157 8        48.746               
G19  25535975.612 7 134192459.111 7      2528.219 7        47.878               
G10  27371870.660 7 143840153.807 7       506.625 7        44.301               
G03  24420063.777 8 128328298.510 8       608.690 8        51.044               
> 2012 09 14 12 48 55.0000000  0  5                                             
G06  25403503.200 8 133496310.006 8      -667.259 8        49.235               
G16  25680634.556 8 134952656.786 8     -2850.067 8        49.338               
G19  25535495.686 7 134189933.333 7      2527.285 7        47.712               
G10  27371773.649 7 143839651.585 7       503.271 7        43.615               
G03  24419947.056 8 128327688.735 8       609.679 8        49.881               
> 2012 09 14 12 48 56.0000000  0  5                                             
G06  25403630.856 8 133496977.886 8      -669.487 8        49.474               
G16  25681176.827 8 134955506.577 8     -2849.204 8        49.996               
G19  25535016.921 8 134187407.952 8      2522.499 8        48.268               
G10  27371678.514 7 143839149.934 7       502.439 7        44.384               
G03  24419832.284 8 128327079.647 8       609.194 8        50.178               
> 2012 09 14 12 48 57.0000000  0  5                                             
G06  25403757.440 8 133497646.398 8      -668.573 8        48.289               
G16  25681721.761 8 134958356.565 8     -2852.439 8        49.721               
G19  25534536.638 7 134184882.982 7      2527.679 7        46.599               
G10  27371578.591 7 143838648.869 7       505.399 7        43.476               
G03  24419717.296 8 128326471.253 8       607.425 8        49.888               
> 2012 09 14 12 48 58.0000000  0  5                                             
G06  25403882.863 8 133498315.529 8      -669.884 8        49.205               
G16  25682263.264 8 134961206.753 8     -2851.036 8        49.930               
G19  25534058.248 7 134182358.408 7      2524.214 7        47.970               
G10  27371487.298 7 143838148.372 7       499.813 7        43.236               
G03  24419600.844 8 128325863.551 8       609.250 8        49.769               
> 2012 09 14 12 48 59.0000000  0  5                                             
G06  25404008.589 8 133498985.290 8      -669.874 8        48.595               
G16  25682806.250 8 134964057.131 8     -2851.732 8        49.968               
G19  25533578.876 8 134179834.241 8      2519.835 8        48.201               
G10  27371392.842 7 143837648.447 7       497.247 7        43.896               
G03  24419484.999 8 128325256.533 8       604.967 8        50.483               
> 2012 09 14 12 49 00.0000000  0  5                                             
G06  25404137.496 8 133499655.684 8      -671.520 8        49.061               
G16  25683347.324 8 134966907.708 8     -2850.527 8        49.205               
G19  25533095.662 8 134177310.480 8      2524.471 8        48.831               
G10  27371297.190 7 143837149.083 7       501.500 7        45.046               
G03  24419369.780 8 128324650.210 8       609.190 8        50.434               
> 2012 09 14 12 49 01.0000000  0  5                                             
G06  25404262.526 8 133500326.717 8      -672.755 8        49.808               
G16  25683888.541 8 134969758.486 8     -2850.491 8        49.532               
G19  25532614.503 8 134174787.121 8      2522.248 8        48.966               
G10  27371204.271 7 143836650.304 7       497.034 7        45.194               
G03  24419252.738 8 128324044.581 8       604.843 8        50.475               
> 2012 09 14 12 49 02.0000000  0  5                                             
G06  25404393.291 8 133500998.374 8      -672.081 8        48.962               
G16  25684431.723 8 134972609.451 8     -2850.213 8        50.365               
G19  25532133.326 8 134172264.167 8      2523.194 8        48.911               
G10  27371108.814 7 143836152.095 7       495.680 7        45.899               
G03  24419136.964 8 128323439.634 8       603.596 8        50.615               
> 2012 09 14 12 49 03.0000000  0  5                                             
G06  25404518.678 8 133501670.666 8      -673.074 8        48.772               
G16  25684972.726 8 134975460.612 8     -2849.590 8        49.640               
G19  25531654.561 8 134169741.616 8      2522.565 8        49.280               
G10  27371014.448 7 143835654.460 7       497.412 7        44.723               
G03  24419021.084 8 128322835.377 8       605.217 8        50.811               
> 2012 09 14 12 49 04.0000000  0  5                                             
G06  25404647.728 7 133502343.593 7      -671.055 7        47.709               
G16  25685515.301 8 134978311.968 8     -2851.724 8        50.495               
G19  25531176.457 8 134167219.461 8      2524.118 8        48.875               
G10  27370921.368 7 143835157.400 7       496.139 7        43.646               
G03  24418907.883 8 128322231.814 8       603.796 8        49.806               
> 2012 09 14 12 49 05.0000000  0  5                                             
G06  25404773.687 7 133503017.153 7      -673.305 7        47.579               
G16  25686058.751 8 134981163.514 8     -2852.809 8        49.948               
G19  25530697.925 8 134164697.713 8      2522.082 8        48.130               
G10  27370823.500 7 143834660.907 7       492.062 7        43.131               
G03  24418793.736 8 128321628.937 8       602.714 8        50.397               
> 2012 09 14 12 49 06.0000000  0  5                                             
G06  25404904.721 7 133503691.330 7      -670.990 7        47.094               
G16  25686600.594 8 134984015.259 8     -2849.482 8        49.075               
G19  25530217.606 8 134162176.365 8      2520.396 8        48.515               
G10  27370730.420 7 143834164.995 7       493.926 7        43.502               
G03  24418677.748 8 128321026.747 8       602.679 8        51.066               
> 2012 09 14 12 49 07.0000000  0  5                                             
G06  25405031.073 7 133504366.147 7      -674.242 7        47.684               
G16  25687143.562 8 134986867.206 8     -2850.649 8        49.000               
G19  25529739.109 8 134159655.414 8      2521.637 8        49.044               
G10  27370635.160 7 143833669.642 7       499.782 7        43.073               
G03  24418562.993 8 128320425.249 8       603.573 8        50.520               
> 2012 09 14 12 49 08.0000000  0  5                                             
G06  25405158.854 7 133505041.594 7      -674.640 7        47.998               
G16  25687684.975 8 134989719.347 8     -2850.241 8        49.685               
G19  25529260.023 8 134157134.876 8      2520.869 8        48.174               
G10  27370538.078 7 143833174.886 7       492.105 7        43.352               
G03  24418448.596 8 128319824.449 8       599.290 8        49.632               
> 2012 09 14 12 49 09.0000000  0  5                                             
G06  25405289.512 8 133505717.673 8      -676.784 8        48.410               
G16  25688230.838 8 134992571.670 8     -2850.839 8        49.701               
G19  25528781.508 8 134154614.736 8      2521.309 8        48.072               
G10  27370445.945 7 143832680.692 7       494.376 7        43.500               
G03  24418334.591 8 128319224.335 8       598.269 8        51.290               
> 2012 09 14 12 49 10.0000000  0  5                                             
G06  25405418.670 7 133506394.376 7      -678.347 7        47.503               
G16  25688773.449 8 134995424.201 8     -2852.357 8        49.709               
G19  25528301.421 8 134152095.009 8      2518.608 8        48.973               
G10  27370356.653 7 143832187.083 7       492.261 7        43.739               
G03  24418220.927 8 128318624.907 8       597.396 8        50.561               
> 2012 09 14 12 49 11.0000000  0  5                                             
G06  25405549.507 7 133507071.731 7      -678.441 7        46.952               
G16  25689314.201 8 134998276.921 8     -2853.275 8        49.397               
G19  25527822.763 8 134149575.681 8      2521.955 8        48.105               
G10  27370260.375 7 143831694.031 7       493.446 7        43.809               
G03  24418107.726 8 128318026.176 8       598.649 8        49.985               
> 2012 09 14 12 49 12.0000000  0  5                                             
G06  25405677.967 7 133507749.704 7      -677.419 7        47.459               
G16  25689857.688 8 135001129.846 8     -2854.297 8        48.828               
G19  25527341.193 7 134147056.774 7      2519.649 7        47.550               
G10  27370170.137 7 143831201.561 7       497.742 7        43.631               
G03  24417993.633 8 128317428.129 8       597.899 8        50.768               
> 2012 09 14 12 49 13.0000000  0  5                                             
G06  25405806.713 7 133508428.315 7      -679.354 7        47.801               
G16  25690401.335 8 135003982.955 8     -2854.196 8        48.112               
G19  25526860.945 8 134144538.230 8      2520.104 8        48.163               
G10  27370076.038 7 143830709.659 7       489.344 7        44.473               
G03  24417881.362 8 128316830.769 8       596.273 8        50.944               
> 2012 09 14 12 49 14.0000000  0  5                                             
G06  25405936.836 7 133509107.529 7      -678.549 7        47.805               
G16  25690942.373 8 135006836.262 8     -2853.698 8        49.614               
G19  25526380.483 7 134142020.097 7      2520.184 7        47.215               
G10  27369984.853 7 143830218.328 7       490.770 7        44.855               
G03  24417766.928 8 128316234.104 8       596.795 8        51.300               
> 2012 09 14 12 49 15.0000000  0  5                                             
G06  25406067.601 8 133509787.387 8      -677.108 8        48.379               
G16  25691487.307 8 135009689.757 8     -2852.015 8        49.921               
G19  25525899.967 7 134139502.375 7      2516.524 7        47.776               
G10  27369891.362 7 143829727.574 7       488.701 7        45.346               
G03  24417653.264 8 128315638.120 8       597.299 8        52.706               
> 2012 09 14 12 49 16.0000000  0  5                                             
G06  25406197.616 8 133510467.877 8      -683.086 8        49.038               
G16  25692028.667 8 135012543.451 8     -2855.431 8        49.668               
G19  25525421.953 8 134136985.064 8      2518.567 8        48.621               
G10  27369800.194 7 143829237.394 7       491.133 7        44.690               
G03  24417541.153 8 128315042.843 8       594.253 8        51.771               
> 2012 09 14 12 49 17.0000000  0  5                                             
G06  25406325.147 8 133511149.009 8      -680.326 8        48.510               
G16  25692572.082 8 135015397.340 8     -2855.452 8        49.311               
G19  25524940.311 8 134134468.148 8      2517.475 8        48.915               
G10  27369704.345 7 143828747.777 7       488.500 7        44.890               
G03  24417427.613 8 128314448.241 8       596.226 8        50.402               
> 2012 09 14 12 49 18.0000000  0  5                                             
G06  25406455.716 8 133511830.763 8      -679.366 8        48.235               
G16  25693114.764 8 135018251.412 8     -2855.408 8        49.043               
G19  25524458.974 7 134131951.648 7      2515.921 7        47.756               
G10  27369614.892 7 143828258.733 7       490.193 7        44.864               
G03  24417315.878 8 128313854.338 8       593.246 8        49.452               
> 2012 09 14 12 49 19.0000000  0  5                                             
G06  25406583.033 8 133512513.141 8      -684.019 8        48.798               
G16  25693659.287 8 135021105.697 8     -2852.742 8        49.490               
G19  25523982.264 7 134129435.547 7      2515.384 7        47.937               
G10  27369518.525 7 143827770.270 7       488.464 7        44.331               
G03  24417202.821 8 128313261.120 8       596.080 8        48.820               
> 2012 09 14 12 49 20.0000000  0  5                                             
G06  25406712.137 8 133513196.147 8      -684.207 8        48.349               
G16  25694201.576 8 135023960.167 8     -2852.684 8        49.023               
G19  25523503.588 8 134126919.870 8      2516.815 8        48.806               
G10  27369423.873 7 143827282.370 7       487.351 7        43.650               
G03  24417090.925 8 128312668.596 8       591.146 8        49.351               
> 2012 09 14 12 49 21.0000000  0  5                                             
G06  25406841.812 8 133513879.800 8      -685.068 8        49.240               
G16  25694746.367 8 135026814.834 8     -2854.515 8        49.702               
G19  25523025.038 8 134124404.589 8      2515.422 8        48.528               
G10  27369333.295 7 143826795.051 7       491.385 7        44.261               
G03  24416977.439 8 128312076.768 8       592.674 8        50.443               
> 2012 09 14 12 49 22.0000000  0  5                                             
G06  25406972.774 8 133514564.071 8      -685.086 8        49.374               
G16  25695286.762 8 135029669.706 8     -2855.779 8        49.294               
G19  25522545.773 7 134121889.722 7      2517.068 7        47.827               
G10  27369239.929 7 143826308.304 7       484.927 7        44.472               
G03  24416863.471 8 128311485.624 8       591.279 8        50.405               
> 2012 09 14 12 49 23.0000000  0  5                                             
G06  25407102.521 8 133515248.983 8      -683.573 8        48.949               
G16  25695830.069 8 135032524.764 8     -2854.921 8        49.954               
G19  25522066.847 8 134119375.260 8      2514.784 8        48.227               
G10  27369146.849 7 143825822.117 7       485.503 7        43.042               
G03  24416750.074 8 128310895.173 8       590.446 8        49.861               
> 2012 09 14 12 49 24.0000000  0  5                                             
G06  25407231.964 8 133515934.525 8      -683.856 8        48.734               
G16  25696374.449 8 135035380.028 8     -2855.498 8        49.699               
G19  25521586.778 8 134116861.201 8      2514.421 8        48.084               
G10  27369056.557 7 143825336.508 7       483.697 7        43.392               
G03  24416637.624 8 128310305.410 8       591.864 8        49.346               
> 2012 09 14 12 49 25.0000000  0  5                                             
G06  25407363.641 8 133516620.698 8      -685.700 8        49.243               
G16  25696917.274 8 135038235.484 8     -2857.736 8        49.344               
G19  25521108.264 8 134114347.547 8      2509.652 8        48.439               
G10  27368963.209 7 143824851.475 7       483.267 7        43.054               
G03  24416523.888 8 128309716.339 8       590.635 8        49.783               
> 2012 09 14 12 49 26.0000000  0  5                                             
G06  25407494.335 8 133517307.508 8      -685.886 8        49.654               
G16  25697460.635 8 135041091.123 8     -2856.502 8        49.140               
G19  25520630.571 8 134111834.304 8      2512.763 8        48.941               
G10  27368866.591 7 143824367.010 7       485.613 7        43.041               
G03  24416411.170 8 128309127.956 8       591.321 8        49.882               
> 2012 09 14 12 49 27.0000000  0  5                                             
G06  25407627.120 8 133517994.936 8      -685.562 8        49.342               
G16  25698003.586 8 135043946.959 8     -2855.637 8        48.179               
G19  25520152.450 7 134109321.468 7      2511.159 7        47.616               
G10  27368774.477 7 143823883.116 7       486.013 7        43.416               
G03  24416300.150 8 128308540.265 8       587.550 8        49.577               
> 2012 09 14 12 49 28.0000000  0  5                                             
G06  25407760.173 8 133518682.999 8      -688.580 8        49.613               
G16  25698546.214 8 135046802.991 8     -2854.585 8        48.516               
G19  25519677.241 7 134106809.038 7      2513.392 7        47.921               
G10  27368682.969 7 143823399.803 7       480.298 7        44.633               
G03  24416186.252 8 128307953.258 8       587.744 8        49.980               
> 2012 09 14 12 49 29.0000000  0  5                                             
G06  25407890.920 8 133519371.685 8      -688.169 8        48.999               
G16  25699091.059 8 135049659.214 8     -2855.782 8        48.853               
G19  25519201.532 8 134104297.028 8      2511.920 8        49.588               
G10  27368588.496 7 143822917.053 7       482.053 7        44.196               
G03  24416077.341 8 128307366.945 8       587.075 8        50.556               
> 2012 09 14 12 49 30.0000000  0  5                                             
G06  25408021.543 8 133520061.003 8      -691.072 8        48.596               
G16  25699634.527 8 135052515.632 8     -2854.356 8        48.861               
G19  25518726.537 8 134101785.413 8      2514.991 8        48.974               
G10  27368494.809 7 143822434.895 7       476.141 7        44.240               
G03  24415966.249 8 128306781.327 8       586.732 8        50.305               
> 2012 09 14 12 49 31.0000000  0  5                                             
G06  25408152.702 7 133520750.952 7      -692.167 7        47.985               
G16  25700178.907 8 135055372.248 8     -2857.568 8        49.193               
G19  25518247.612 8 134099274.204 8      2511.327 8        49.866               
G10  27368403.230 7 143821953.282 7       483.531 7        43.795               
G03  24415857.248 8 128306196.400 8       584.512 8        50.647               
> 2012 09 14 12 49 32.0000000  0  5                                             
G06  25408284.307 8 133521441.535 8      -692.642 8        48.269               
G16  25700722.733 8 135058229.050 8     -2855.553 8        49.875               
G19  25517770.884 8 134096763.411 8      2510.634 8        49.089               
G10  27368314.582 7 143821472.269 7       479.721 7        42.720               
G03  24415744.494 8 128305612.168 8       583.547 8        49.988               
> 2012 09 14 12 49 33.0000000  0  5                                             
G06  25408416.502 8 133522132.749 8      -689.912 8        48.814               
G16  25701267.541 8 135061086.043 8     -2857.589 8        49.738               
G19  25517291.762 8 134094253.026 8      2509.096 8        49.535               
G10  27368224.039 7 143820991.816 7       478.591 7        44.083               
G03  24415635.208 8 128305028.619 8       584.490 8        49.365               
> 2012 09 14 12 49 34.0000000  0  5                                             
G06  25408547.053 8 133522824.602 8      -689.610 8        49.033               
G16  25701810.367 8 135063943.219 8     -2856.766 8        48.793               
G19  25516813.319 8 134091743.043 8      2506.250 8        48.941               
G10  27368133.497 7 143820511.945 7       481.484 7        44.775               
G03  24415523.830 8 128304445.763 8       583.091 8        50.240               
> 2012 09 14 12 49 35.0000000  0  5                                             
G06  25408678.926 8 133523517.084 8      -693.098 8        48.035               
G16  25702354.139 8 135066800.603 8     -2857.060 8        49.811               
G19  25516335.751 8 134089233.466 8      2507.714 8        49.085               
G10  27368042.043 7 143820032.640 7       481.820 7        44.600               
G03  24415412.613 8 128303863.605 8       581.088 8        50.187               
> 2012 09 14 12 49 36.0000000  0  5                                             
G06  25408809.245 7 133524210.192 7      -694.629 7        47.606               
G16  25702899.948 8 135069658.184 8     -2856.438 8        49.367               
G19  25515856.165 8 134086724.293 8      2506.972 8        48.428               
G10  27367952.162 7 143819553.912 7       481.280 7        44.229               
G03  24415302.790 8 128303282.131 8       582.080 8        50.282               
> 2012 09 14 12 49 37.0000000  0  5                                             
G06  25408939.832 8 133524903.923 8      -695.068 8        48.951               
G16  25703443.667 8 135072515.954 8     -2856.748 8        48.487               
G19  25515377.454 8 134084215.528 8      2510.424 8        49.265               
G10  27367860.172 7 143819075.759 7       476.572 7        44.538               
G03  24415192.217 8 128302701.353 8       580.441 8        50.829               
> 2012 09 14 12 49 38.0000000  0  5                                             
G06  25409071.705 8 133525598.300 8      -696.048 8        49.649               
G16  25703986.742 8 135075373.918 8     -2858.060 8        48.483               
G19  25514901.548 7 134081707.182 7      2507.449 7        47.915               
G10  27367772.435 7 143818598.175 7       480.704 7        43.156               
G03  24415081.482 8 128302121.269 8       580.610 8        50.605               
> 2012 09 14 12 49 39.0000000  0  5                                             
G06  25409203.150 8 133526293.303 8      -693.846 8        48.515               
G16  25704532.212 8 135078232.067 8     -2857.408 8        49.469               
G19  25514423.730 8 134079199.239 8      2507.496 8        48.770               
G10  27367680.499 7 143818121.163 7       475.442 7        43.233               
G03  24414972.821 8 128301541.882 8       581.425 8        50.656               
> 2012 09 14 12 49 40.0000000  0  5                                             
G06  25409335.095 8 133526988.946 8      -695.647 8        48.355               
G16  25705075.895 8 135081090.413 8     -2856.844 8        49.704               
G19  25513948.754 8 134076691.705 8      2508.507 8        49.319               
G10  27367589.600 7 143817644.736 7       477.847 7        45.124               
G03  24414864.642 8 128300963.184 8       577.378 8        51.111               
> 2012 09 14 12 49 41.0000000  0  5                                             
G06  25409465.878 8 133527685.211 8      -696.744 8        48.910               
G16  25705619.060 8 135083948.956 8     -2859.632 8        50.472               
G19  25513472.205 8 134074184.578 8      2506.585 8        49.552               
G10  27367499.879 7 143817168.872 7       480.158 7        45.592               
G03  24414756.212 8 128300385.179 8       577.535 8        51.038               
> 2012 09 14 12 49 42.0000000  0  5                                             
G06  25409598.216 8 133528382.106 8      -698.758 8        48.861               
G16  25706163.207 8 135086807.681 8     -2859.224 8        50.543               
G19  25512994.530 8 134071677.860 8      2507.689 8        49.637               
G10  27367408.801 7 143816693.587 7       474.554 7        45.046               
G03  24414645.353 8 128299807.858 8       577.362 8        50.669               
> 2012 09 14 12 49 43.0000000  0  5                                             
G06  25409733.860 8 133529079.638 8      -699.252 8        48.858               
G16  25706709.141 8 135089666.591 8     -2857.629 8        50.214               
G19  25512517.802 8 134069171.548 8      2505.116 8        49.356               
G10  27367314.828 7 143816218.870 7       474.137 7        44.940               
G03  24414535.030 8 128299231.229 8       575.811 8        51.490               
> 2012 09 14 12 49 44.0000000  0  5                                             
G06  25409867.431 8 133529777.795 8      -698.132 8        49.777               
G16  25707251.627 8 135092525.699 8     -2860.815 8        50.383               
G19  25512043.505 8 134066665.644 8      2505.460 8        48.225               
G10  27367224.285 7 143815744.727 7       473.897 7        43.901               
G03  24414424.045 8 128298655.290 8       575.022 8        51.522               
> 2012 09 14 12 49 45.0000000  0  5                                             
G06  25409998.947 8 133530476.589 8      -699.318 8        48.344               
G16  25707794.381 8 135095384.991 8     -2858.158 8        49.154               
G19  25511567.849 7 134064160.151 7      2503.528 7        47.840               
G10  27367132.671 7 143815271.154 7       469.670 7        44.262               
G03  24414313.936 8 128298080.037 8       573.598 8        51.206               
> 2012 09 14 12 49 46.0000000  0  5                                             
G06  25410132.518 8 133531176.013 8      -699.353 8        48.193               
G16  25708340.083 8 135098244.482 8     -2856.382 8        49.899               
G19  25511092.105 8 134061655.074 8      2503.948 8        50.153               
G10  27367044.791 7 143814798.151 7       474.043 7        43.939               
G03  24414204.363 8 128297505.477 8       574.046 8        51.799               
> 2012 09 14 12 49 47.0000000  0  5                                             
G06  25410265.588 8 133531876.066 8      -700.765 8        48.369               
G16  25708884.623 8 135101104.158 8     -2862.066 8        49.417               
G19  25510615.448 8 134059150.405 8      2505.456 8        49.629               
G10  27366956.857 7 143814325.728 7       471.093 7        43.557               
G03  24414095.416 8 128296931.609 8       572.713 8        49.181               
> 2012 09 14 12 49 48.0000000  0  5                                             
G06  25410399.142 8 133532576.744 8      -701.632 8        48.528               
G16  25709429.039 8 135103964.029 8     -2860.985 8        50.587               
G19  25510139.435 8 134056646.141 8      2504.248 8        48.957               
G10  27366861.723 7 143813853.877 7       472.260 7        43.629               
G03  24413986.433 8 128296358.427 8       575.965 8        49.263               
> 2012 09 14 12 49 49.0000000  0  5                                             
G06  25410533.892 8 133533278.054 8      -700.310 8        48.641               
G16  25709973.186 8 135106824.085 8     -2860.949 8        49.618               
G19  25509661.779 8 134054142.284 8      2504.289 8        49.263               
G10  27366774.325 7 143813382.597 7       473.857 7        43.819               
G03  24413876.949 8 128295785.942 8       572.858 8        50.286               
> 2012 09 14 12 49 50.0000000  0  5                                             
G06  25410669.589 8 133533979.988 8      -702.658 8        49.203               
G16  25710516.512 8 135109684.339 8     -2861.333 8        50.088               
G19  25509184.836 8 134051638.849 8      2502.655 8        48.446               
G10  27366686.374 7 143812911.897 7       472.674 7        44.140               
G03  24413769.664 8 128295214.152 8       570.978 8        51.285               
> 2012 09 14 12 49 51.0000000  0  5                                             
G06  25410804.107 8 133534682.562 8      -702.277 8        48.362               
G16  25711060.481 8 135112544.779 8     -2861.365 8        49.285               
G19  25508706.268 7 134049135.815 7      2504.075 7        47.487               
G10  27366600.567 7 143812441.761 7       469.506 7        44.388               
G03  24413660.645 8 128294643.049 8       571.700 8        50.118               
> 2012 09 14 12 49 52.0000000  0  5                                             
G06  25410939.465 8 133535385.766 8      -702.306 8        48.761               
G16  25711604.217 8 135115405.414 8     -2860.036 8        49.684               
G19  25508229.541 7 134046633.195 7      2501.934 7        46.596               
G10  27366511.669 7 143811972.200 7       468.164 7        44.713               
G03  24413553.520 8 128294072.641 8       570.276 8        49.486               
> 2012 09 14 12 49 53.0000000  0  5                                             
G06  25411072.375 8 133536089.592 8      -703.799 8        48.304               
G16  25712145.720 8 135118266.242 8     -2860.536 8        50.000               
G19  25507751.634 8 134044130.972 8      2502.031 8        48.600               
G10  27366423.342 7 143811503.203 7       469.552 7        45.050               
G03  24413445.823 8 128293502.919 8       567.210 8        50.119               
> 2012 09 14 12 49 54.0000000  0  5                                             
G06  25411203.927 7 133536794.051 7      -706.293 7        47.987               
G16  25712689.975 8 135121127.266 8     -2861.223 8        50.149               
G19  25507275.567 8 134041629.169 8      2500.071 8        48.593               
G10  27366334.140 7 143811034.783 7       469.521 7        45.288               
G03  24413338.770 8 128292933.891 8       568.945 8        51.052               
> 2012 09 14 12 49 55.0000000  0  5                                             
G06  25411337.801 8 133537499.137 8      -706.742 8        48.644               
G16  25713233.425 8 135123988.477 8     -2860.531 8        50.739               
G19  25506799.358 7 134039127.768 7      2500.667 7        47.848               
G10  27366247.243 7 143810566.934 7       467.362 7        46.227               
G03  24413231.038 8 128292365.552 8       568.699 8        51.495               
> 2012 09 14 12 49 56.0000000  0  5                                             
G06  25411472.123 8 133538204.850 8      -704.622 8        48.827               
G16  25713777.251 8 135126849.878 8     -2863.050 8        50.776               
G19  25506322.737 8 134036626.779 8      2500.822 8        48.629               
G10  27366155.610 7 143810099.672 7       468.403 7        45.435               
G03  24413123.877 8 128291797.911 8       567.565 8        51.713               
> 2012 09 14 12 49 57.0000000  0  5                                             
G06  25411608.017 8 133538911.191 8      -707.975 8        48.125               
G16  25714325.795 8 135129711.469 8     -2861.813 8        50.637               
G19  25505849.244 8 134034126.210 8      2501.343 8        49.186               
G10  27366067.945 7 143809632.968 7       467.422 7        45.942               
G03  24413013.965 8 128291230.959 8       567.414 8        51.195               
> 2012 09 14 12 49 58.0000000  0  5                                             
G06  25411743.839 8 133539618.172 8      -705.186 8        48.363               
G16  25714866.994 8 135132573.253 8     -2862.640 8        50.089               
G19  25505374.732 8 134031626.052 8      2500.493 8        49.031               
G10  27365978.117 7 143809166.845 7       466.273 7        44.937               
G03  24412905.411 8 128290664.697 8       565.075 8        51.052               
> 2012 09 14 12 49 59.0000000  0  5                                             
G06  25411881.699 7 133540325.793 7      -710.282 7        47.347               
G16  25715413.714 8 135135435.227 8     -2862.280 8        49.861               
G19  25504900.131 8 134029126.302 8      2500.464 8        48.963               
G10  27365885.717 7 143808701.291 7       466.633 7        44.442               
G03  24412798.482 8 128290099.125 8       567.560 8        50.576               
> 2012 09 14 12 50 00.0000000  0  5                                             
G06  25412013.983 7 133541034.035 7      -711.308 7        47.330               
G16  25715959.488 8 135138297.387 8     -2861.692 8        49.831               
G19  25504426.298 8 134026626.964 8      2499.454 8        49.309               
G10  27365798.570 7 143808236.312 7       466.237 7        45.227               
G03  24412689.642 8 128289534.245 8       562.996 8        50.981               
> 2012 09 14 12 50 01.0000000  0  5                                             
G06  25412148.698 7 133541742.900 7      -709.902 7        47.607               
G16  25716505.369 8 135141159.734 8     -2862.441 8        50.590               
G19  25503951.536 8 134024128.032 8      2498.451 8        50.295               
G10  27365711.154 7 143807771.899 7       464.641 7        46.164               
G03  24412582.392 8 128288970.049 8       564.850 8        51.476               
> 2012 09 14 12 50 02.0000000  0  5                                             
G06  25412282.608 7 133542452.378 7      -709.772 7        47.707               
G16  25717051.553 8 135144022.270 8     -2862.452 8        50.015               
G19  25503476.756 8 134021629.505 8      2497.310 8        50.083               
G10  27365622.149 7 143807308.066 7       463.212 7        45.349               
G03  24412475.696 8 128288406.551 8       563.243 8        51.860               
> 2012 09 14 12 50 03.0000000  0  5                                             
G06  25412415.697 7 133543162.510 7      -712.677 7        47.328               
G16  25717597.952 8 135146885.006 8     -2863.416 8        50.295               
G19  25502999.153 8 134019131.396 8      2497.922 8        50.159               
G10  27365532.250 7 143806844.798 7       462.308 7        45.716               
G03  24412367.088 8 128287843.741 8       562.998 8        51.473               
> 2012 09 14 12 50 04.0000000  0  5                                             
G06  25412551.215 7 133543873.259 7      -712.521 7        47.773               
G16  25718141.367 8 135149747.929 8     -2862.594 8        49.933               
G19  25502522.425 8 134016633.695 8      2500.010 8        49.732               
G10  27365444.370 7 143806382.127 7       462.023 7        45.360               
G03  24412261.286 8 128287281.635 8       560.227 8        51.504               
> 2012 09 14 12 50 05.0000000  0  5                                             
G06  25412686.108 8 133544584.656 8      -710.812 8        48.467               
G16  25718687.909 8 135152611.046 8     -2861.702 8        49.995               
G19  25502045.322 8 134014136.404 8      2496.247 8        48.766               
G10  27365358.295 7 143805920.008 7       464.211 7        45.030               
G03  24412153.589 8 128286720.221 8       561.308 8        51.792               
> 2012 09 14 12 50 06.0000000  0  5                                             
G06  25412823.575 8 133545296.668 8      -713.315 8        48.557               
G16  25719232.878 8 135155474.343 8     -2864.317 8        50.224               
G19  25501568.541 8 134011639.518 8      2496.387 8        49.650               
G10  27365268.753 7 143805458.466 7       461.457 7        44.750               
G03  24412047.394 8 128286159.495 8       561.194 8        50.929               
> 2012 09 14 12 50 07.0000000  0  5                                             
G06  25412956.252 8 133546009.316 8      -712.715 8        48.751               
G16  25719777.705 8 135158337.835 8     -2863.641 8        50.689               
G19  25501092.885 8 134009143.035 8      2496.072 8        49.587               
G10  27365181.784 7 143804997.508 7       460.650 7        44.518               
G03  24411940.912 8 128285599.467 8       558.870 8        49.495               
> 2012 09 14 12 50 08.0000000  0  5                                             
G06  25413090.252 7 133546722.603 7      -714.938 7        47.722               
G16  25720321.066 8 135161201.515 8     -2863.312 8        49.374               
G19  25500618.105 8 134006646.967 8      2497.242 8        48.754               
G10  27365094.333 7 143804537.113 7       460.891 7        43.981               
G03  24411834.699 8 128285040.124 8       559.449 8        49.912               
> 2012 09 14 12 50 09.0000000  0  5                                             
G06  25413228.612 8 133547436.504 8      -711.662 8        48.137               
G16  25720868.537 8 135164065.397 8     -2865.201 8        49.844               
G19  25500143.504 8 134004151.318 8      2493.819 8        49.445               
G10  27365004.470 7 143804077.279 7       458.766 7        44.500               
G03  24411728.485 8 128284481.471 8       559.010 8        51.030               
> 2012 09 14 12 50 10.0000000  0  5                                             
G06  25413364.524 8 133548151.040 8      -714.800 8        48.485               
G16  25721412.453 8 135166929.460 8     -2862.455 8        49.643               
G19  25499669.224 8 134001656.076 8      2495.696 8        49.333               
G10  27364915.071 7 143803618.037 7       459.757 7        44.296               
G03  24411620.449 8 128283923.526 8       556.903 8        50.276               
> 2012 09 14 12 50 11.0000000  0  5                                             
G06  25413502.276 8 133548866.207 8      -714.247 8        49.134               
G16  25721957.994 8 135169793.711 8     -2863.985 8        50.606               
G19  25499195.070 8 133999161.241 8      2493.546 8        49.642               
G10  27364826.691 7 143803159.376 7       453.931 7        44.246               
G03  24411512.234 8 128283366.266 8       556.873 8        51.135               
> 2012 09 14 12 50 12.0000000  0  5                                             
G06  25413637.277 8 133549582.005 8      -715.421 8        48.969               
G16  25722500.640 8 135172658.154 8     -2864.867 8        49.682               
G19  25498721.487 8 133996666.827 8      2494.699 8        49.609               
G10  27364742.314 7 143802701.264 7       461.665 7        43.256               
G03  24411406.110 8 128282809.696 8       556.202 8        51.392               
> 2012 09 14 12 50 13.0000000  0  5                                             
G06  25413773.849 8 133550298.430 8      -717.967 8        48.743               
G16  25723045.252 8 135175522.777 8     -2863.375 8        49.309               
G19  25498248.155 8 133994172.817 8      2494.115 8        49.313               
G10  27364653.004 7 143802243.753 7       460.470 7        43.849               
G03  24411300.451 8 128282253.824 8       553.069 8        50.788               
> 2012 09 14 12 50 14.0000000  0  5                                             
G06  25413910.137 8 133551015.490 8      -718.328 8        49.599               
G16  25723589.382 8 135178387.597 8     -2865.395 8        49.066               
G19  25497771.963 8 133991679.222 8      2491.120 8        49.347               
G10  27364564.535 7 143801786.788 7       459.630 7        43.678               
G03  24411195.041 8 128281698.632 8       555.975 8        51.324               
> 2012 09 14 12 50 15.0000000  0  5                                             
G06  25414047.049 8 133551733.173 8      -716.991 8        49.094               
G16  25724134.602 8 135181252.615 8     -2864.232 8        49.207               
G19  25497297.487 8 133989186.047 8      2495.399 8        48.977               
G10  27364479.228 7 143801330.412 7       458.652 7        43.918               
G03  24411092.062 8 128281144.141 8       554.641 8        51.068               
> 2012 09 14 12 50 16.0000000  0  5                                             
G06  25414182.764 8 133552451.485 8      -720.053 8        48.289               
G16  25724680.518 8 135184117.817 8     -2865.283 8        49.726               
G19  25496824.619 8 133986693.281 8      2493.845 8        49.205               
G10  27364393.814 7 143800874.604 7       456.207 7        44.043               
G03  24410986.367 8 128280590.347 8       554.361 8        52.126               
> 2012 09 14 12 50 17.0000000  0  5                                             
G06  25414319.587 7 133553170.443 7      -722.791 7        47.290               
G16  25725224.433 8 135186983.203 8     -2865.169 8        48.367               
G19  25496350.554 8 133984200.935 8      2492.916 8        49.788               
G10  27364308.507 7 143800419.371 7       454.500 7        43.635               
G03  24410880.957 8 128280037.244 8       550.831 8        50.774               
> 2012 09 14 12 50 18.0000000  0  5                                             
G06  25414456.553 7 133553890.015 7      -723.597 7        47.213               
G16  25725767.991 8 135189848.783 8     -2868.166 8        49.046               
G19  25495875.041 8 133981708.993 8      2492.369 8        48.700               
G10  27364225.113 7 143799964.718 7       455.784 7        45.207               
G03  24410774.994 8 128279484.831 8       549.965 8        50.449               
> 2012 09 14 12 50 19.0000000  0  5                                             
G06  25414592.322 7 133554610.223 7      -721.823 7        46.802               
G16  25726314.122 8 135192714.547 8     -2865.462 8        49.195               
G19  25495400.922 8 133979217.456 8      2490.178 8        48.990               
G10  27364136.214 7 143799510.629 7       454.762 7        44.946               
G03  24410669.924 8 128278933.107 8       551.047 8        50.428               
> 2012 09 14 12 50 20.0000000  0  5                                             
G06  25414728.091 7 133555331.057 7      -723.247 7        47.307               
G16  25726858.591 8 135195580.504 8     -2864.038 8        48.766               
G19  25494927.089 8 133976726.333 8      2490.326 8        48.888               
G10  27364051.176 7 143799057.110 7       454.327 7        45.012               
G03  24410563.782 8 128278382.078 8       547.277 8        50.790               
> 2012 09 14 12 50 21.0000000  0  5                                             
G06  25414865.093 7 133556052.528 7      -718.129 7        46.725               
G16  25727400.737 8 135198446.647 8     -2864.172 8        49.103               
G19  25494454.347 8 133974235.631 8      2488.120 8        48.288               
G10  27363965.923 7 143798604.164 7       453.338 7        44.957               
G03  24410458.480 8 128277831.744 8       547.166 8        50.653               
> 2012 09 14 12 50 22.0000000  0  5                                             
G06  25415003.739 7 133556774.632 7      -723.267 7        46.791               
G16  25727948.334 8 135201312.988 8     -2866.509 8        49.272               
G19  25493980.138 7 133971745.344 7      2488.653 7        47.939               
G10  27363881.831 7 143798151.810 7       450.963 7        44.299               
G03  24410354.947 8 128277282.106 8       547.880 8        49.480               
> 2012 09 14 12 50 23.0000000  0  5                                             
G06  25415144.028 7 133557497.363 7      -723.243 7        46.702               
G16  25728493.946 8 135204179.508 8     -2866.425 8        48.605               
G19  25493505.055 8 133969255.461 8      2488.751 8        48.676               
G10  27363798.293 7 143797699.991 7       449.265 7        43.678               
G03  24410250.324 8 128276733.149 8       549.890 8        49.873               
> 2012 09 14 12 50 24.0000000  0  5                                             
G06  25415280.083 7 133558220.717 7      -724.140 7        47.381               
G16  25729039.041 8 135207046.211 8     -2864.714 8        48.445               
G19  25493031.365 8 133966765.998 8      2490.841 8        49.284               
G10  27363712.486 7 143797248.761 7       447.137 7        45.210               
G03  24410146.094 8 128276184.885 8       549.410 8        50.246               
> 2012 09 14 12 50 25.0000000  0  5                                             
G06  25415417.460 7 133558944.699 7      -725.816 7        47.501               
G16  25729584.671 7 135209913.110 7     -2864.216 7        47.559               
G19  25492556.996 8 133964276.942 8      2486.558 8        50.010               
G10  27363624.481 7 143796798.098 7       447.302 7        44.912               
G03  24410043.240 8 128275637.314 8       546.759 8        50.305               
> 2012 09 14 12 50 26.0000000  0  5                                             
G06  25415555.534 7 133559669.317 7      -724.018 7        46.498               
G16  25730130.838 7 135212780.199 7     -2869.868 7        47.764               
G19  25492083.270 8 133961788.300 8      2488.646 8        49.252               
G10  27363536.959 7 143796348.010 7       445.251 7        42.785               
G03  24409939.474 8 128275090.441 8       547.453 8        50.896               
> 2012 09 14 12 50 27.0000000  0  5                                             
G06  25415693.822 7 133560394.554 7      -727.487 7        47.206               
G16  25730678.309 8 135215647.469 8     -2866.969 8        48.585               
G19  25491609.276 8 133959300.075 8      2487.978 8        49.940               
G10  27363449.472 7 143795898.497 7       449.537 7        43.110               
G03  24409834.351 8 128274544.263 8       545.874 8        51.794               
> 2012 09 14 12 50 28.0000000  0  5                                             
G06  25415831.289 7 133561120.427 7      -727.640 7        46.742               
G16  25731221.635 8 135218514.927 8     -2867.291 8        48.931               
G19  25491135.408 8 133956812.280 8      2486.788 8        49.838               
G10  27363364.201 7 143795449.565 7       449.668 7        43.737               
G03  24409731.783 8 128273998.782 8       543.866 8        52.011               
> 2012 09 14 12 50 29.0000000  0  5                                             
G06  25415970.828 7 133561846.946 7      -728.479 7        46.768               
G16  25731769.356 8 135221382.579 8     -2869.688 8        48.640               
G19  25490662.862 8 133954324.893 8      2486.226 8        50.430               
G10  27363277.483 7 143795001.199 7       449.820 7        43.263               
G03  24409628.357 8 128273453.985 8       544.307 8        50.757               
> 2012 09 14 12 50 30.0000000  0  5                                             
G06  25416106.507 7 133562574.079 7      -726.554 7        46.810               
G16  25732314.969 8 135224250.410 8     -2867.815 8        48.682               
G19  25490189.565 8 133951837.923 8      2486.086 8        49.834               
G10  27363197.733 7 143794553.396 7       452.523 7        44.006               
G03  24409524.734 8 128272909.883 8       542.492 8        49.906               
> 2012 09 14 12 50 31.0000000  0  5                                             
G06  25416247.566 7 133563301.844 7      -729.248 7        46.483               
G16  25732862.279 8 135227118.440 8     -2867.182 8        48.044               
G19  25489718.376 8 133949351.358 8      2483.958 8        49.193               
G10  27363107.906 7 143794106.182 7       445.693 7        43.922               
G03  24409419.682 8 128272366.475 8       540.784 8        49.879               
> 2012 09 14 12 50 32.0000000  0  5                                             
G06  25416387.677 7 133564030.236 7      -726.392 7        45.866               
G16  25733407.999 8 135229986.649 8     -2868.863 8        49.872               
G19  25489245.205 8 133946865.206 8      2486.037 8        50.236               
G10  27363021.580 7 143793659.540 7       445.802 7        42.611               
G03  24409316.399 8 128271823.762 8       539.928 8        49.763               
> 2012 09 14 12 50 33.0000000  0  5                                             
G06  25416526.537 7 133564759.251 7      -728.431 7        46.123               
G16  25733957.078 8 135232855.051 8     -2868.012 8        49.282               
G19  25488773.391 8 133944379.485 8      2485.029 8        49.440               
G10  27362936.881 7 143793213.462 7       442.626 7        43.041               
G03  24409214.796 8 128271281.733 8       541.341 8        51.417               
> 2012 09 14 12 50 34.0000000  0  5                                             
G06  25416663.413 7 133565488.902 7      -730.095 7        46.535               
G16  25734503.442 8 135235723.641 8     -2869.873 8        49.783               
G19  25488298.450 8 133941894.164 8      2481.347 8        50.326               
G10  27362853.772 7 143792767.948 7       449.102 7        43.574               
G03  24409110.977 8 128270740.406 8       540.300 8        51.488               
> 2012 09 14 12 50 35.0000000  0  5                                             
G06  25416801.988 7 133566219.188 7      -731.182 7        46.338               
G16  25735050.984 8 135238592.414 8     -2870.072 8        49.970               
G19  25487826.690 8 133939409.268 8      2482.808 8        48.706               
G10  27362769.538 7 143792323.010 7       445.660 7        44.486               
G03  24409007.605 8 128270199.767 8       539.089 8        50.800               
> 2012 09 14 12 50 36.0000000  0  5                                             
G06  25416941.080 7 133566950.108 7      -733.331 7        46.295               
G16  25735596.150 8 135241461.377 8     -2865.692 8        48.401               
G19  25487352.822 8 133936924.784 8      2483.598 8        49.402               
G10  27362686.643 7 143791878.650 7       443.325 7        43.375               
G03  24408904.912 8 128269659.817 8       541.763 8        50.736               
> 2012 09 14 12 50 37.0000000  0  5                                             
G06  25417078.940 7 133567681.647 7      -732.703 7        47.454               
G16  25736140.619 8 135244330.529 8     -2869.205 8        48.015               
G19  25486879.435 8 133934440.707 8      2483.478 8        50.123               
G10  27362602.784 7 143791434.855 7       446.006 7        43.874               
G03  24408803.719 8 128269120.563 8       540.597 8        49.021               
> 2012 09 14 12 50 38.0000000  0  5                                             
G06  25417218.836 7 133568413.828 7      -733.892 7        47.824               
G16  25736687.948 8 135247199.880 8     -2867.875 8        48.360               
G19  25486406.603 8 133931957.047 8      2483.551 8        49.833               
G10  27362517.013 7 143790991.653 7       441.182 7        43.759               
G03  24408702.420 8 128268582.010 8       538.096 8        51.048               
> 2012 09 14 12 50 39.0000000  0  5                                             
G06  25417359.162 7 133569146.646 7      -731.678 7        47.035               
G16  25737234.364 8 135250069.406 8     -2871.135 8        49.183               
G19  25485930.501 8 133929473.811 8      2484.301 8        48.949               
G10  27362433.421 7 143790549.009 7       443.885 7        43.037               
G03  24408599.369 8 128268044.151 8       538.509 8        52.259               
> 2012 09 14 12 50 40.0000000  0  5                                             
G06  25417499.273 7 133569880.083 7      -735.617 7        47.730               
G16  25737782.014 8 135252939.124 8     -2868.562 8        49.227               
G19  25485457.722 8 133926990.980 8      2483.544 8        48.760               
G10  27362349.687 7 143790106.940 7       444.266 7        44.091               
G03  24408496.694 8 128267506.988 8       538.172 8        51.648               
> 2012 09 14 12 50 41.0000000  0  5                                             
G06  25417638.991 7 133570614.141 7      -736.911 7        47.641               
G16  25738327.913 8 135255809.022 8     -2869.758 8        49.680               
G19  25484984.354 8 133924508.567 8      2481.416 8        48.045               
G10  27362268.419 7 143789665.439 7       438.767 7        45.004               
G03  24408395.662 8 128266970.516 8       537.029 8        51.254               
> 2012 09 14 12 50 42.0000000  0  5                                             
G06  25417776.743 7 133571348.834 7      -735.199 7        47.076               
G16  25738871.542 8 135258679.110 8     -2868.139 8        50.027               
G19  25484513.523 8 133922026.566 8      2482.853 8        48.900               
G10  27362181.861 7 143789224.520 7       441.898 7        43.979               
G03  24408291.843 8 128266434.738 8       534.510 8        50.745               
> 2012 09 14 12 50 43.0000000  0  5                                             
G06  25417915.907 7 133572084.160 7      -737.760 7        47.519               
G16  25739419.299 8 135261549.380 8     -2870.408 8        48.906               
G19  25484042.531 7 133919544.982 7      2482.700 7        47.988               
G10  27362098.074 7 143788784.166 7       439.011 7        43.604               
G03  24408190.562 8 128265899.658 8       533.206 8        50.409               
> 2012 09 14 12 50 44.0000000  0  5                                             
G06  25418054.410 7 133572820.099 7      -735.287 7        47.219               
G16  25739965.484 8 135264419.834 8     -2868.774 8        49.623               
G19  25483569.521 8 133917063.821 8      2480.748 8        48.846               
G10  27362018.503 7 143788344.383 7       445.104 7        42.804               
G03  24408090.370 8 128265365.261 8       533.709 8        51.030               
> 2012 09 14 12 50 45.0000000  0  5                                             
G06  25418194.592 8 133573556.680 8      -738.617 8        48.192               
G16  25740512.187 8 135267290.471 8     -2872.347 8        49.657               
G19  25483096.545 8 133914583.069 8      2481.323 8        48.615               
G10  27361932.767 7 143787905.181 7       438.249 7        42.859               
G03  24407988.963 8 128264831.564 8       532.941 8        50.732               
> 2012 09 14 12 50 46.0000000  0  5                                             
G06  25418335.775 7 133574293.884 7      -738.475 7        47.569               
G16  25741056.584 8 135270161.305 8     -2872.292 8        49.748               
G19  25482621.390 8 133912102.749 8      2481.758 8        49.183               
G10  27361850.677 7 143787466.532 7       441.020 7        43.789               
G03  24407887.217 8 128264298.565 8       531.724 8        51.181               
> 2012 09 14 12 50 47.0000000  0  5                                             
G06  25418476.905 7 133575031.726 7      -738.993 7        47.813               
G16  25741603.573 8 135273032.321 8     -2869.925 8        49.830               
G19  25482149.344 8 133909622.828 8      2477.151 8        48.266               
G10  27361767.836 7 143787028.475 7       439.385 7        43.595               
G03  24407784.738 8 128263766.254 8       530.340 8        50.845               
> 2012 09 14 12 50 48.0000000  0  5                                             
G06  25418617.463 8 133575770.186 8      -740.051 8        49.128               
G16  25742148.489 8 135275903.543 8     -2872.242 8        49.761               
G19  25481677.155 8 133907143.311 8      2481.480 8        48.842               
G10  27361681.475 7 143786590.973 7       441.560 7        43.044               
G03  24407682.778 8 128263234.634 8       533.149 8        52.100               
> 2012 09 14 12 50 49.0000000  0  5                                             
G06  25418760.093 8 133576509.282 8      -737.745 8        49.028               
G16  25742692.726 8 135278774.950 8     -2873.667 8        49.316               
G19  25481209.166 7 133904664.215 7      2477.399 7        47.716               
G10  27361596.079 7 143786154.068 7       435.869 7        43.709               
G03  24407578.869 8 128262703.710 8       531.413 8        51.300               
> 2012 09 14 12 50 50.0000000  0  5                                             
G06  25418900.579 8 133577249.012 8      -739.554 8        48.974               
G16  25743240.089 8 135281646.543 8     -2871.892 8        50.217               
G19  25480739.139 7 133902185.551 7      2478.126 7        47.639               
G10  27361511.827 7 143785717.721 7       434.806 7        43.816               
G03  24407478.142 8 128262173.479 8       529.080 8        51.399               
> 2012 09 14 12 50 51.0000000  0  5                                             
G06  25419043.764 8 133577989.361 8      -740.852 8        49.027               
G16  25743785.506 8 135284518.316 8     -2870.647 8        49.673               
G19  25480267.093 8 133899707.302 8      2477.547 8        48.129               
G10  27361425.912 7 143785281.925 7       435.033 7        42.637               
G03  24407377.700 8 128261643.934 8       528.893 8        49.687               
> 2012 09 14 12 50 52.0000000  0  5                                             
G06  25419186.627 8 133578730.355 8      -741.542 8        49.369               
G16  25744331.476 8 135287390.271 8     -2869.738 8        49.214               
G19  25479797.352 7 133897229.460 7      2480.022 7        47.808               
G10  27361345.377 7 143784846.742 7       435.834 7        42.257               
G03  24407276.722 8 128261115.096 8       527.527 8        49.648               
> 2012 09 14 12 50 53.0000000  0  5                                             
G06  25419329.579 8 133579471.976 8      -740.221 8        48.793               
G16  25744879.090 8 135290262.418 8     -2873.568 8        50.167               
G19  25479325.592 8 133894752.045 8      2476.670 8        48.102               
G10  27361265.306 7 143784412.109 7       435.510 7        43.017               
G03  24407177.906 8 128260586.949 8       528.445 8        50.744               
> 2012 09 14 12 50 54.0000000  0  5                                             
G06  25419470.476 8 133580214.228 8      -742.412 8        49.411               
G16  25745425.489 8 135293134.736 8     -2873.578 8        49.958               
G19  25478853.975 8 133892275.045 8      2476.618 8        49.449               
G10  27361180.910 7 143783978.043 7       431.130 7        42.899               
G03  24407078.858 8 128260059.490 8       529.247 8        51.452               
> 2012 09 14 12 50 55.0000000  0  5                                             
G06  25419609.372 8 133580957.112 8      -743.145 8        50.465               
G16  25745972.692 8 135296007.241 8     -2871.785 8        49.386               
G19  25478382.751 8 133889798.454 8      2475.959 8        49.370               
G10  27361100.517 7 143783544.545 7       435.131 7        42.845               
G03  24406979.149 8 128259532.735 8       525.716 8        51.625               
> 2012 09 14 12 50 56.0000000  0  5                                             
G06  25419750.269 8 133581700.622 8      -744.025 8        50.093               
G16  25746518.894 8 135298879.934 8     -2874.272 8        49.884               
G19  25477912.170 8 133887322.282 8      2478.783 8        49.826               
G10  27361019.267 7 143783111.638 7       434.757 7        43.422               
G03  24406878.368 8 128259006.660 8       526.627 8        50.681               
> 2012 09 14 12 50 57.0000000  0  5                                             
G06  25419891.756 8 133582444.750 8      -745.767 8        49.700               
G16  25747066.723 8 135301752.812 8     -2872.382 8        49.544               
G19  25477440.892 8 133884846.532 8      2474.122 8        48.499               
G10  27360940.179 7 143782679.286 7       434.362 7        43.647               
G03  24406777.533 8 128258481.281 8       527.020 8        50.011               
> 2012 09 14 12 50 58.0000000  0  5                                             
G06  25420033.386 8 133583189.505 8      -744.737 8        49.532               
G16  25747614.373 8 135304625.878 8     -2872.200 8        50.007               
G19  25476969.097 8 133882371.196 8      2472.362 8        48.402               
G10  27360856.855 7 143782247.512 7       431.436 7        43.995               
G03  24406678.699 8 128257956.598 8       523.475 8        50.649               
> 2012 09 14 12 50 59.0000000  0  5                                             
G06  25420174.319 7 133583934.896 7      -744.377 7        47.935               
G16  25748162.165 8 135307499.123 8     -2873.535 8        49.749               
G19  25476499.999 8 133879896.278 8      2475.129 8        48.286               
G10  27360774.497 7 143781816.308 7       430.559 7        42.449               
G03  24406577.310 8 128257432.612 8       524.537 8        50.358               
> 2012 09 14 12 51 00.0000000  0  5                                             
G06  25420314.573 8 133584680.909 8      -744.002 8        49.071               
G16  25748708.850 8 135310372.552 8     -2872.541 8        49.061               
G19  25476031.670 8 133877421.781 8      2473.727 8        48.095               
G10  27360693.425 7 143781385.686 7       431.065 7        42.378               
G03  24406477.298 8 128256909.325 8       520.224 8        50.173               
> 2012 09 14 12 51 01.0000000  0  5                                             
G06  25420457.061 7 133585427.550 7      -746.992 7        47.835               
G16  25749255.231 8 135313246.170 8     -2874.354 8        49.487               
G19  25475561.125 8 133874947.692 8      2473.956 8        49.292               
G10  27360612.050 7 143780955.633 7       428.840 7        42.372               
G03  24406378.196 8 128256386.727 8       522.302 8        50.367               
> 2012 09 14 12 51 02.0000000  0  5                                             
G06  25420601.693 7 133586174.818 7      -747.879 7        47.402               
G16  25749801.452 8 135316119.973 8     -2872.950 8        49.428               
G19  25475090.669 8 133872474.022 8      2474.425 8        49.334               
G10  27360525.242 6 143780526.154 6       430.258 6        41.368               
G03  24406278.844 8 128255864.832 8       519.788 8        49.528               
> 2012 09 14 12 51 03.0000000  0  5                                             
G06  25420745.627 8 133586922.725 8      -749.058 8        48.909               
G16  25750346.814 8 135318993.962 8     -2872.763 8        48.490               
G19  25474619.785 8 133870000.777 8      2474.047 8        49.211               
G10  27360445.153 6 143780097.245 6       422.145 6        41.869               
G03  24406179.903 8 128255343.623 8       520.048 8        49.678               
> 2012 09 14 12 51 04.0000000  0  5                                             
G06  25420887.257 8 133587671.261 8      -745.968 8        48.529               
G16  25750892.034 8 135321868.138 8     -2874.980 8        49.385               
G19  25474150.383 8 133867527.955 8      2469.673 8        50.256               
G10  27360363.474 6 143779668.918 6       430.012 6        41.810               
G03  24406081.695 8 128254823.106 8       520.718 8        51.100               
> 2012 09 14 12 51 05.0000000  0  5                                             
G06  25421028.387 8 133588420.428 8      -751.916 8        48.947               
G16  25751438.755 8 135324742.493 8     -2873.710 8        48.591               
G19  25473677.337 8 133865055.547 8      2475.274 8        49.158               
G10  27360279.364 7 143779241.156 7       424.728 7        42.306               
G03  24405984.523 8 128254303.291 8       518.079 8        52.108               
> 2012 09 14 12 51 06.0000000  0  5                                             
G06  25421172.483 7 133589170.227 7      -751.895 7        47.918               
G16  25751982.723 8 135327617.038 8     -2874.963 8        49.386               
G19  25473207.560 8 133862583.550 8      2473.224 8        49.010               
G10  27360199.811 6 143778813.970 6       424.786 6        41.496               
G03  24405883.921 8 128253784.163 8       519.000 8        52.432               
> 2012 09 14 12 51 07.0000000  0  5                                             
G06  25421315.703 8 133589920.652 8      -749.502 8        48.742               
G16  25752530.874 8 135330491.762 8     -2873.202 8        48.999               
G19  25472736.086 8 133860111.980 8      2472.168 8        48.809               
G10  27360112.396 6 143778387.341 6       427.560 6        41.627               
G03  24405788.357 8 128253265.733 8       517.782 8        51.526               
> 2012 09 14 12 51 08.0000000  0  5                                             
G06  25421458.977 8 133590671.717 8      -752.711 8        48.441               
G16  25753077.648 8 135333366.683 8     -2875.287 8        49.157               
G19  25472266.131 8 133857640.826 8      2469.363 8        49.439               
G10  27360037.561 7 143777961.300 7       427.122 7        42.497               
G03  24405688.970 8 128252747.993 8       521.138 8        50.259               
> 2012 09 14 12 51 09.0000000  0  5                                             
G06  25421603.662 8 133591423.404 8      -752.933 8        48.763               
G16  25753624.476 8 135336241.775 8     -2876.511 8        48.709               
G19  25471795.228 8 133855170.093 8      2470.830 8        49.429               
G10  27359954.845 7 143777535.831 7       427.497 7        42.387               
G03  24405589.672 8 128252230.962 8       516.789 8        51.402               
> 2012 09 14 12 51 10.0000000  0  5                                             
G06  25421745.381 8 133592175.712 8      -751.239 8        49.251               
G16  25754170.803 8 135339117.057 8     -2876.098 8        49.431               
G19  25471327.167 8 133852699.787 8      2469.218 8        49.499               
G10  27359873.309 6 143777110.946 6       422.324 6        41.278               
G03  24405491.410 8 128251714.616 8       515.073 8        51.577               
> 2012 09 14 12 51 11.0000000  0  5                                             
G06  25421888.584 8 133592928.659 8      -754.390 8        48.334               
G16  25754720.025 8 135341992.515 8     -2874.373 8        48.250               
G19  25470857.051 8 133850229.896 8      2469.182 8        49.200               
G10  27359795.882 7 143776686.617 7       422.273 7        42.200               
G03  24405392.505 8 128251198.971 8       517.709 8        49.957               
> 2012 09 14 12 51 12.0000000  0  5                                             
G06  25422033.930 8 133593682.236 8      -754.637 8        48.095               
G16  25755266.996 8 135344868.167 8     -2877.625 8        49.240               
G19  25470386.524 8 133847760.420 8      2468.831 8        49.395               
G10  27359714.614 7 143776262.855 7       425.278 7        43.126               
G03  24405292.117 8 128250684.017 8       515.357 8        51.220               
> 2012 09 14 12 51 13.0000000  0  5                                             
G06  25422176.096 8 133594436.446 8      -754.508 8        48.918               
G16  25755815.218 8 135347743.999 8     -2877.093 8        49.705               
G19  25469915.300 8 133845291.361 8      2468.064 8        49.573               
G10  27359631.416 7 143775839.676 7       420.793 7        43.649               
G03  24405194.641 8 128250169.764 8       514.048 8        50.830               
> 2012 09 14 12 51 14.0000000  0  5                                             
G06  25422317.494 8 133595191.280 8      -754.728 8        49.401               
G16  25756364.780 8 135350620.008 8     -2877.078 8        49.459               
G19  25469443.754 8 133842822.727 8      2468.295 8        49.203               
G10  27359552.703 7 143775417.056 7       423.312 7        44.578               
G03  24405095.647 8 128249656.205 8       514.082 8        51.349               
> 2012 09 14 12 51 15.0000000  0  5                                             
G06  25422459.999 8 133595946.737 8      -755.501 8        48.934               
G16  25756911.661 8 135353496.203 8     -2877.322 8        50.143               
G19  25468973.781 8 133840354.506 8      2466.157 8        48.536               
G10  27359473.954 7 143774995.025 7       423.549 7        44.248               
G03  24404998.779 8 128249143.342 8       512.806 8        51.792               
> 2012 09 14 12 51 16.0000000  0  5                                             
G06  25422603.488 8 133596702.827 8      -755.846 8        48.326               
G16  25757460.365 8 135356372.584 8     -2877.811 8        49.959               
G19  25468501.699 8 133837886.709 8      2467.352 8        48.258               
G10  27359391.399 7 143774573.550 7       424.164 7        44.528               
G03  24404904.305 8 128248631.171 8       510.798 8        51.721               
> 2012 09 14 12 51 17.0000000  0  5                                             
G06  25422745.743 8 133597459.539 8      -760.064 8        48.456               
G16  25758006.460 8 135359249.143 8     -2875.315 8        49.065               
G19  25468032.459 8 133835419.327 8      2469.271 8        48.309               
G10  27359313.687 7 143774152.661 7       424.405 7        44.047               
G03  24404806.472 8 128248119.697 8       510.885 8        50.280               
> 2012 09 14 12 51 18.0000000  0  5                                             
G06  25422887.266 8 133598216.869 8      -756.786 8        49.198               
G16  25758552.842 8 135362125.890 8     -2876.895 8        48.455               
G19  25467562.825 8 133832952.378 8      2464.193 8        48.692               
G10  27359232.097 7 143773732.324 7       419.155 7        44.501               
G03  24404710.409 8 128247608.923 8       507.591 8        49.261               
> 2012 09 14 12 51 19.0000000  0  5                                             
G06  25423034.417 8 133598974.833 8      -758.811 8        48.620               
G16  25759101.099 8 135365002.824 8     -2878.048 8        49.335               
G19  25467093.066 7 133830485.826 7      2468.160 7        47.771               
G10  27359150.614 7 143773312.589 7       419.155 7        44.895               
G03  24404612.325 8 128247098.833 8       510.171 8        50.426               
> 2012 09 14 12 51 20.0000000  0  5                                             
G06  25423177.137 8 133599733.424 8      -758.619 8        49.419               
G16  25759646.765 8 135367879.937 8     -2875.741 8        48.556               
G19  25466624.576 8 133828019.707 8      2465.522 8        49.156               
G10  27359073.813 7 143772893.410 7       419.883 7        42.949               
G03  24404515.851 8 128246589.430 8       508.866 8        51.120               
> 2012 09 14 12 51 21.0000000  0  5                                             
G06  25423323.591 8 133600492.654 8      -760.821 8        48.450               
G16  25760193.236 8 135370757.241 8     -2877.189 8        48.858               
G19  25466155.622 8 133825554.000 8      2468.387 8        48.260               
G10  27358993.063 7 143772474.802 7       414.679 7        43.697               
G03  24404417.124 8 128246080.734 8       507.950 8        51.350               
> 2012 09 14 12 51 22.0000000  0  5                                             
G06  25423467.759 8 133601252.515 8      -760.809 8        48.034               
G16  25760739.795 7 135373634.727 7     -2878.947 7        47.839               
G19  25465684.701 8 133823088.717 8      2462.370 8        48.917               
G10  27358914.850 7 143772056.782 7       418.253 7        44.160               
G03  24404318.577 8 128245572.726 8       507.445 8        51.271               
> 2012 09 14 12 51 23.0000000  0  5                                             
G06  25423613.284 8 133602013.011 8      -760.965 8        48.052               
G16  25761287.856 8 135376512.391 8     -2877.479 8        49.507               
G19  25465217.516 8 133820623.843 8      2466.454 8        49.045               
G10  27358834.779 7 143771639.318 7       418.053 7        44.545               
G03  24404220.583 8 128245065.417 8       506.914 8        49.901               
> 2012 09 14 12 51 24.0000000  0  5                                             
G06  25423758.970 8 133602774.138 8      -761.008 8        48.200               
G16  25761835.363 8 135379390.241 8     -2879.289 8        49.679               
G19  25464749.079 8 133818159.394 8      2465.833 8        49.179               
G10  27358754.440 7 143771222.432 7       418.821 7        43.384               
G03  24404123.876 8 128244558.799 8       505.510 8        51.032               
> 2012 09 14 12 51 25.0000000  0  5                                             
G06  25423903.405 7 133603535.901 7      -763.074 7        47.835               
G16  25762384.889 8 135382268.274 8     -2875.905 8        48.794               
G19  25464281.179 8 133815695.367 8      2462.713 8        48.963               
G10  27358674.815 7 143770806.112 7       415.216 7        43.394               
G03  24404027.580 8 128244052.881 8       505.475 8        51.090               
> 2012 09 14 12 51 26.0000000  0  5                                             
G06  25424048.681 8 133604298.285 8      -763.613 8        48.124               
G16  25762930.502 8 135385146.490 8     -2876.904 8        48.910               
G19  25463814.261 8 133813231.763 8      2463.882 8        49.191               
G10  27358595.548 7 143770390.373 7       415.251 7        43.206               
G03  24403931.998 8 128243547.646 8       505.441 8        50.827               
> 2012 09 14 12 51 27.0000000  0  5                                             
G06  25424197.494 7 133605061.286 7      -767.033 7        47.657               
G16  25763479.045 7 135388024.889 7     -2876.815 7        47.794               
G19  25463346.611 8 133810768.575 8      2466.371 8        49.672               
G10  27358517.782 7 143769975.200 7       415.218 7        42.596               
G03  24403836.310 8 128243043.113 8       508.209 8        49.749               
> 2012 09 14 12 51 28.0000000  0  5                                             
G06  25424342.322 7 133605824.912 7      -764.002 7        47.759               
G16  25764025.373 7 135390903.456 7     -2877.011 7        47.937               
G19  25462877.317 8 133808305.805 8      2463.154 8        49.070               
G10  27358440.267 7 143769560.600 7       415.217 7        42.609               
G03  24403743.373 8 128242539.279 8       505.559 8        50.262               
> 2012 09 14 12 51 29.0000000  0  5                                             
G06  25424490.850 7 133606589.172 7      -765.225 7        47.999               
G16  25764574.649 8 135393782.218 8     -2878.891 8        48.423               
G19  25462409.631 7 133805843.462 7      2463.431 7        47.769               
G10  27358361.464 7 143769146.584 7       410.751 7        42.443               
G03  24403645.629 8 128242036.133 8       504.212 8        50.482               
> 2012 09 14 12 51 30.0000000  0  5                                             
G06  25424635.481 8 133607354.077 8      -765.975 8        48.150               
G16  25765121.083 8 135396661.156 8     -2880.462 8        48.917               
G19  25461942.070 8 133803381.532 8      2464.698 8        48.182               
G10  27358286.682 7 143768733.135 7       411.590 7        43.307               
G03  24403550.423 8 128241533.696 8       501.692 8        51.293               
> 2012 09 14 12 51 31.0000000  0  5                                             
G06  25424779.363 7 133608119.592 7      -763.506 7        47.409               
G16  25765669.645 8 135399540.283 8     -2879.827 8        49.261               
G19  25461471.275 8 133800920.024 8      2462.178 8        48.606               
G10  27358206.897 7 143768320.252 7       413.605 7        44.090               
G03  24403457.182 8 128241031.944 8       500.794 8        50.915               
> 2012 09 14 12 51 32.0000000  0  5                                             
G06  25424925.210 7 133608885.758 7      -766.380 7        47.925               
G16  25766217.419 8 135402419.584 8     -2878.165 8        49.011               
G19  25461005.573 8 133798458.943 8      2461.617 8        48.251               
G10  27358125.075 7 143767907.942 7       407.260 7        42.972               
G03  24403361.958 8 128240530.893 8       499.900 8        50.325               
> 2012 09 14 12 51 33.0000000  0  5                                             
G06  25425068.359 8 133609652.541 8      -768.804 8        48.203               
G16  25766764.158 8 135405299.075 8     -2878.527 8        48.948               
G19  25460538.673 8 133795998.281 8      2460.364 8        48.956               
G10  27358044.450 7 143767496.200 7       408.547 7        42.985               
G03  24403268.057 8 128240030.534 8       500.788 8        50.179               
> 2012 09 14 12 51 34.0000000  0  5                                             
G06  25425213.527 8 133610419.943 8      -769.078 8        48.387               
G16  25767311.343 8 135408178.750 8     -2880.724 8        49.062               
G19  25460071.398 8 133793538.039 8      2457.539 8        48.795               
G10  27357966.416 7 143767085.035 7       413.488 7        43.474               
G03  24403173.244 8 128239530.885 8       498.746 8        50.479               
> 2012 09 14 12 51 35.0000000  0  5                                             
G06  25425356.336 8 133611187.976 8      -769.115 8        48.101               
G16  25767860.637 8 135411058.610 8     -2880.343 8        48.548               
G19  25459602.336 8 133791078.226 8      2458.484 8        48.752               
G10  27357887.453 7 143766674.457 7       410.968 7        43.027               
G03  24403080.378 8 128239031.920 8       497.685 8        51.639               
> 2012 09 14 12 51 36.0000000  0  5                                             
G06  25425503.684 8 133611956.631 8      -769.871 8        48.047               
G16  25768408.698 8 135413938.642 8     -2879.329 8        48.901               
G19  25459134.329 8 133788618.833 8      2458.654 8        49.109               
G10  27357807.828 7 143766264.429 7       411.010 7        43.241               
G03  24402985.244 8 128238533.652 8       496.280 8        51.286               
> 2012 09 14 12 51 37.0000000  0  5                                             
G06  25425651.496 7 133612725.927 7      -768.192 7        47.231               
G16  25768958.349 8 135416818.857 8     -2879.360 8        49.456               
G19  25458666.714 8 133786159.855 8      2459.738 8        49.347               
G10  27357733.511 7 143765854.985 7       409.284 7        42.933               
G03  24402889.912 8 128238036.078 8       497.120 8        50.906               
> 2012 09 14 12 51 38.0000000  0  5                                             
G06  25425796.182 8 133613495.854 8      -772.574 8        48.276               
G16  25769508.232 8 135419699.257 8     -2879.197 8        48.669               
G19  25458197.920 8 133783701.304 8      2459.478 8        49.292               
G10  27357655.709 7 143765446.121 7       409.925 7        42.767               
G03  24402792.937 8 128237539.207 8       498.222 8        50.841               
> 2012 09 14 12 51 39.0000000  0  5                                             
G06  25425945.317 7 133614266.394 7      -769.077 7        47.829               
G16  25770054.185 8 135422579.837 8     -2878.958 8        48.528               
G19  25457728.805 8 133781243.179 8      2457.310 8        48.742               
G10  27357578.551 7 143765037.809 7       409.424 7        42.547               
G03  24402698.964 8 128237043.017 8       497.828 8        51.244               
> 2012 09 14 12 51 40.0000000  0  5                                             
G06  25426093.790 7 133615037.559 7      -771.138 7        47.409               
G16  25770602.120 8 135425460.599 8     -2881.476 8        49.245               
G19  25457259.814 8 133778785.467 8      2461.272 8        49.081               
G10  27357504.716 7 143764630.072 7       405.867 7        42.563               
G03  24402605.795 8 128236547.531 8       495.366 8        51.444               
> 2012 09 14 12 51 41.0000000  0  5                                             
G06  25426241.353 8 133615809.360 8      -771.339 8        48.325               
G16  25771149.716 8 135428341.542 8     -2882.820 8        49.111               
G19  25456792.736 8 133776328.185 8      2456.626 8        49.047               
G10  27357425.020 7 143764222.920 7       407.882 7        43.536               
G03  24402511.590 8 128236052.747 8       494.527 8        50.751               
> 2012 09 14 12 51 42.0000000  0  5                                             
G06  25426388.236 8 133616581.787 8      -771.762 8        48.790               
G16  25771700.082 8 135431222.667 8     -2879.584 8        50.227               
G19  25456325.425 8 133773871.318 8      2454.452 8        48.811               
G10  27357347.683 7 143763816.338 7       409.610 7        42.833               
G03  24402418.367 8 128235558.654 8       494.258 8        50.958               
> 2012 09 14 12 51 43.0000000  0  5                                             
G06  25426536.871 8 133617354.847 8      -773.083 8        49.335               
G16  25772248.608 8 135434103.973 8     -2879.630 8        49.406               
G19  25455857.579 8 133771414.868 8      2456.606 8        48.183               
G10  27357270.614 7 143763410.316 7       406.628 7        42.681               
G03  24402325.037 8 128235065.253 8       493.572 8        51.428               
> 2012 09 14 12 51 44.0000000  0  5                                             
G06  25426685.898 8 133618128.534 8      -773.796 8        49.251               
G16  25772797.383 8 135436985.464 8     -2882.751 8        49.707               
G19  25455389.178 8 133768958.861 8      2454.672 8        48.561               
G10  27357192.491 7 143763004.878 7       404.516 7        43.287               
G03  24402230.492 8 128234572.546 8       490.215 8        51.210               
> 2012 09 14 12 51 45.0000000  0  5                                             
G06  25426833.389 8 133618902.853 8      -777.122 8        48.958               
G16  25773347.910 8 135439867.133 8     -2880.731 8        48.699               
G19  25454922.779 8 133766503.264 8      2452.058 8        48.524               
G10  27357112.509 7 143762600.006 7       404.272 7        43.027               
G03  24402138.324 8 128234080.539 8       493.220 8        50.786               
> 2012 09 14 12 51 46.0000000  0  5                                             
G06  25426980.773 8 133619677.786 8      -774.048 8        48.684               
G16  25773897.919 8 135442748.984 8     -2883.651 8        49.169               
G19  25454455.110 7 133764048.088 7      2454.573 7        47.824               
G10  27357030.847 6 143762195.713 6       401.473 6        41.778               
G03  24402043.475 8 128233589.222 8       490.066 8        51.056               
> 2012 09 14 12 51 47.0000000  0  5                                             
G06  25427126.691 8 133620453.354 8      -774.672 8        49.275               
G16  25774444.925 8 135445631.005 8     -2882.037 8        49.173               
G19  25453986.942 8 133761593.335 8      2455.629 8        49.058               
G10  27356955.136 6 143761791.978 6       406.825 6        41.824               
G03  24401949.770 8 128233098.603 8       490.081 8        51.143               
> 2012 09 14 12 51 48.0000000  0  5                                             
G06  25427273.289 8 133621229.544 8      -776.453 8        48.812               
G16  25774994.165 8 135448513.207 8     -2882.445 8        50.399               
G19  25453522.258 8 133759138.998 8      2452.207 8        49.364               
G10  27356877.138 7 143761388.841 7       401.588 7        42.104               
G03  24401855.207 8 128232608.678 8       487.710 8        50.977               
> 2012 09 14 12 51 49.0000000  0  5                                             
G06  25427419.708 8 133622006.363 8      -779.249 8        49.234               
G16  25775541.351 8 135451395.597 8     -2881.968 8        50.369               
G19  25453053.500 8 133756685.082 8      2454.182 8        48.985               
G10  27356805.698 6 143760986.260 6       401.861 6        41.977               
G03  24401762.038 8 128232119.452 8       490.013 8        50.871               
> 2012 09 14 12 51 50.0000000  0  5                                             
G06  25427566.716 8 133622783.812 8      -776.920 8        48.809               
G16  25776089.179 8 135454278.159 8     -2881.374 8        48.983               
G19  25452587.923 8 133754231.598 8      2453.654 8        49.238               
G10  27356730.666 7 143760584.233 7       404.569 7        42.678               
G03  24401671.388 8 128231630.922 8       488.763 8        49.557               
> 2012 09 14 12 51 51.0000000  0  5                                             
G06  25427713.045 8 133623561.897 8      -780.242 8        48.823               
G16  25776638.205 8 135457160.911 8     -2882.285 8        49.119               
G19  25452121.577 7 133751778.534 7      2452.143 7        47.965               
G10  27356654.419 7 143760182.809 7       400.620 7        43.854               
G03  24401576.271 8 128231143.084 8       487.283 8        48.887               
> 2012 09 14 12 51 52.0000000  0  5                                             
G06  25427861.859 8 133624340.630 8      -777.769 8        49.309               
G16  25777187.123 8 135460043.847 8     -2883.572 8        49.541               
G19  25451656.929 8 133749325.907 8      2454.654 8        48.151               
G10  27356575.598 6 143759781.935 6       397.507 6        41.743               
G03  24401482.352 8 128230655.943 8       487.372 8        50.457               
> 2012 09 14 12 51 53.0000000  0  5                                             
G06  25428010.511 8 133625119.976 8      -777.958 8        48.605               
G16  25777735.220 8 135462926.954 8     -2882.427 8        49.742               
G19  25451188.635 8 133746873.691 8      2452.386 8        48.973               
G10  27356502.425 7 143759381.650 7       393.738 7        42.790               
G03  24401389.808 8 128230169.505 8       485.570 8        51.040               
> 2012 09 14 12 51 54.0000000  0  5                                             
G06  25428159.771 8 133625899.968 8      -780.270 8        49.229               
G16  25778285.478 8 135465810.246 8     -2885.602 8        49.309               
G19  25450720.038 8 133744421.899 8      2452.273 8        48.896               
G10  27356428.286 7 143758981.914 7       401.527 7        42.537               
G03  24401297.925 8 128229683.762 8       484.732 8        51.265               
> 2012 09 14 12 51 55.0000000  0  5                                             
G06  25428307.673 8 133626680.566 8      -782.598 8        48.169               
G16  25778832.717 8 135468693.716 8     -2884.988 8        48.914               
G19  25450254.711 8 133741970.520 8      2452.068 8        48.227               
G10  27356352.146 7 143758582.757 7       399.581 7        42.772               
G03  24401205.775 8 128229198.711 8       486.029 8        50.613               
> 2012 09 14 12 51 56.0000000  0  5                                             
G06  25428457.773 8 133627461.787 8      -780.886 8        48.644               
G16  25779383.155 8 135471577.364 8     -2884.813 8        48.841               
G19  25449789.026 8 133739519.580 8      2450.463 8        48.815               
G10  27356281.581 7 143758184.181 7       395.159 7        42.703               
G03  24401112.427 8 128228714.358 8       485.297 8        50.835               
> 2012 09 14 12 51 57.0000000  0  5                                             
G06  25428604.281 8 133628243.646 8      -782.899 8        48.364               
G16  25779930.947 8 135474461.189 8     -2883.775 8        48.770               
G19  25449320.858 8 133737069.068 8      2450.456 8        48.827               
G10  27356206.138 7 143757786.163 7       398.683 7        42.678               
G03  24401020.277 8 128228230.706 8       482.577 8        50.675               
> 2012 09 14 12 51 58.0000000  0  5                                             
G06  25428758.365 7 133629026.131 7      -784.682 7        47.951               
G16  25780478.562 8 135477345.199 8     -2884.833 8        49.305               
G19  25448854.869 8 133734618.984 8      2449.910 8        49.039               
G10  27356126.871 7 143757388.725 7       396.932 7        42.820               
G03  24400929.323 8 128227747.753 8       481.189 8        50.228               
> 2012 09 14 12 51 59.0000000  0  5                                             
G06  25428904.570 8 133629809.242 8      -785.864 8        49.043               
G16  25781026.819 8 135480229.380 8     -2885.628 8        49.023               
G19  25448385.182 8 133732169.320 8      2448.914 8        49.174               
G10  27356051.446 7 143756991.854 7       398.578 7        42.770               
G03  24400836.297 8 128227265.496 8       480.160 8        49.428               
> 2012 09 14 12 52 00.0000000  0  5                                             
G06  25429054.294 8 133630592.968 8      -786.061 8        48.649               
G16  25781572.968 8 135483113.746 8     -2884.740 8        49.245               
G19  25447920.445 8 133729720.079 8      2450.016 8        49.317               
G10  27355974.449 7 143756595.567 7       397.288 7        43.620               
G03  24400745.880 8 128226783.932 8       481.811 8        49.906               
> 2012 09 14 12 52 01.0000000  0  5                                             
G06  25429201.213 8 133631377.333 8      -785.684 8        49.277               
G16  25782121.314 8 135485998.288 8     -2884.430 8        48.924               
G19  25447452.991 8 133727271.262 8      2448.599 8        49.372               
G10  27355902.794 7 143756199.844 7       393.135 7        43.694               
G03  24400654.819 8 128226303.061 8       482.266 8        50.782               
> 2012 09 14 12 52 02.0000000  0  5                                             
G06  25429348.615 8 133632162.324 8      -785.535 8        48.340               
G16  25782672.091 8 135488883.012 8     -2885.035 8        48.820               
G19  25446986.073 8 133724822.868 8      2449.126 8        49.621               
G10  27355825.975 7 143755804.684 7       393.039 7        44.056               
G03  24400563.151 8 128225822.891 8       480.369 8        50.387               
> 2012 09 14 12 52 03.0000000  0  5                                             
G06  25429501.627 7 133632947.952 7      -788.328 7        47.126               
G16  25783219.634 8 135491767.910 8     -2883.789 8        48.455               
G19  25446520.621 8 133722374.904 8      2447.113 8        48.583               
G10  27355746.994 7 143755410.115 7       394.577 7        44.330               
G03  24400470.590 8 128225343.420 8       480.554 8        50.175               
> 2012 09 14 12 52 04.0000000  0  5                                             
G06  25429649.744 7 133633734.204 7      -787.024 7        46.579               
G16  25783768.284 7 135494652.996 7     -2885.850 7        47.859               
G19  25446053.793 7 133719927.357 7      2447.416 7        47.943               
G10  27355672.016 7 143755016.097 7       396.142 7        44.699               
G03  24400381.548 8 128224864.648 8       480.221 8        50.570               
> 2012 09 14 12 52 05.0000000  0  5                                             
G06  25429801.148 7 133634521.088 7      -787.531 7        46.888               
G16  25784318.061 7 135497538.259 7     -2888.512 7        47.574               
G19  25445589.698 7 133717480.239 7      2445.551 7        47.564               
G10  27355593.070 7 143754622.666 7       394.359 7        43.521               
G03  24400289.076 8 128224386.566 8       477.684 8        50.114               
> 2012 09 14 12 52 06.0000000  0  5                                             
G06  25429951.552 7 133635308.592 7      -785.716 7        46.898               
G16  25784866.926 8 135500423.703 8     -2884.100 8        48.610               
G19  25445124.782 8 133715033.554 8      2446.173 8        48.823               
G10  27355519.486 7 143754229.805 7       394.648 7        43.683               
G03  24400199.016 8 128223909.181 8       476.993 8        50.867               
> 2012 09 14 12 52 07.0000000  0  5                                             
G06  25430098.882 7 133636096.730 7      -786.897 7        47.839               
G16  25785416.648 8 135503309.326 8     -2885.204 8        48.679               
G19  25444660.795 8 133712587.273 8      2445.051 8        49.097               
G10  27355447.759 7 143753837.517 7       393.203 7        44.547               
G03  24400106.973 8 128223432.492 8       478.062 8        50.360               
> 2012 09 14 12 52 08.0000000  0  5                                             
G06  25430249.107 8 133636885.502 8      -791.231 8        48.307               
G16  25785967.103 8 135506195.118 8     -2884.840 8        49.432               
G19  25444195.665 8 133710141.444 8      2447.594 8        49.244               
G10  27355373.978 7 143753445.785 7       392.810 7        44.250               
G03  24400016.520 8 128222956.505 8       475.112 8        50.122               
> 2012 09 14 12 52 09.0000000  0  5                                             
G06  25430398.581 7 133637674.913 7      -787.445 7        46.925               
G16  25786516.201 8 135509081.094 8     -2886.466 8        49.122               
G19  25443733.036 8 133707696.037 8      2445.080 8        49.249               
G10  27355298.982 7 143753054.640 7       389.680 7        43.864               
G03  24399925.156 8 128222481.222 8       472.998 8        50.076               
> 2012 09 14 12 52 10.0000000  0  5                                             
G06  25430552.594 7 133638464.950 7      -790.999 7        46.648               
G16  25787064.333 8 135511967.252 8     -2884.621 8        48.532               
G19  25443268.298 8 133705251.052 8      2445.112 8        50.164               
G10  27355225.755 7 143752664.059 7       392.901 7        43.310               
G03  24399836.168 8 128222006.622 8       475.040 8        50.670               
> 2012 09 14 12 52 11.0000000  0  5                                             
G06  25430702.980 7 133639255.607 7      -789.682 7        46.326               
G16  25787613.502 8 135514853.584 8     -2885.198 8        48.633               
G19  25442803.775 8 133702806.493 8      2443.244 8        48.980               
G10  27355149.758 7 143752274.047 7       390.690 7        43.645               
G03  24399746.305 8 128221532.734 8       472.511 8        50.509               
> 2012 09 14 12 52 12.0000000  0  5                                             
G06  25430851.525 7 133640046.876 7      -790.850 7        46.590               
G16  25788163.117 8 135517740.101 8     -2886.224 8        49.367               
G19  25442339.752 8 133700362.364 8      2443.743 8        49.835               
G10  27355077.978 7 143751884.611 7       386.340 7        44.528               
G03  24399656.120 8 128221059.527 8       473.513 8        50.925               
> 2012 09 14 12 52 13.0000000  0  5                                             
G06  25431004.234 7 133640838.789 7      -791.300 7        46.318               
G16  25788711.750 8 135520626.790 8     -2887.582 8        48.521               
G19  25441872.709 8 133697918.644 8      2442.856 8        49.407               
G10  27355000.355 7 143751495.726 7       390.503 7        45.046               
G03  24399567.918 8 128220587.027 8       472.258 8        50.867               
> 2012 09 14 12 52 14.0000000  0  5                                             
G06  25431156.317 7 133641631.323 7      -794.200 7        46.421               
G16  25789262.151 8 135523513.660 8     -2885.509 8        48.111               
G19  25441406.131 8 133695475.358 8      2444.419 8        49.364               
G10  27354931.112 7 143751107.427 7       386.765 7        44.905               
G03  24399477.251 8 128220115.218 8       469.956 8        51.145               
> 2012 09 14 12 52 15.0000000  0  5                                             
G06  25431306.149 7 133642424.472 7      -792.237 7        46.659               
G16  25789811.499 8 135526400.711 8     -2888.922 8        48.880               
G19  25440939.321 8 133693032.499 8      2442.762 8        49.516               
G10  27354853.471 7 143750719.700 7       386.042 7        44.383               
G03  24399389.210 8 128219644.104 8       468.329 8        51.492               
> 2012 09 14 12 52 16.0000000  0  5                                             
G06  25431455.927 7 133643218.266 7      -794.502 7        46.705               
G16  25790361.275 8 135529287.935 8     -2889.735 8        48.751               
G19  25440475.924 8 133690590.073 8      2441.507 8        49.091               
G10  27354780.584 7 143750332.547 7       388.800 7        43.361               
G03  24399299.043 8 128219173.689 8       467.718 8        51.226               
> 2012 09 14 12 52 17.0000000  0  5                                             
G06  25431605.419 7 133644012.682 7      -797.071 7        46.605               
G16  25790912.767 8 135532175.341 8     -2887.630 8        48.637               
G19  25440010.060 8 133688148.061 8      2440.740 8        49.004               
G10  27354707.642 7 143749945.964 7       387.225 7        43.143               
G03  24399211.270 8 128218703.963 8       469.857 8        51.225               
> 2012 09 14 12 52 18.0000000  0  5                                             
G06  25431757.913 7 133644807.712 7      -797.495 7        46.386               
G16  25791463.204 8 135535062.924 8     -2888.473 8        48.931               
G19  25439543.214 8 133685706.487 8      2443.047 8        48.057               
G10  27354634.165 7 143749559.955 7       383.998 7        43.240               
G03  24399121.550 8 128218234.938 8       471.521 8        50.538               
> 2012 09 14 12 52 19.0000000  0  5                                             
G06  25431908.621 7 133645603.370 7      -794.803 7        46.633               
G16  25792012.212 8 135537950.685 8     -2887.095 8        48.807               
G19  25439079.674 8 133683265.330 8      2440.169 8        48.304               
G10  27354562.188 7 143749174.529 7       383.346 7        43.294               
G03  24399032.598 8 128217766.621 8       468.774 8        50.050               
> 2012 09 14 12 52 20.0000000  0  5                                             
G06  25432058.041 7 133646399.656 7      -793.269 7        47.575               
G16  25792559.326 8 135540838.619 8     -2886.293 8        49.378               
G19  25438617.956 8 133680824.600 8      2440.313 8        48.597               
G10  27354489.372 7 143748789.657 7       382.743 7        42.646               
G03  24398944.325 8 128217298.991 8       466.876 8        50.230               
> 2012 09 14 12 52 21.0000000  0  5                                             
G06  25432210.893 8 133647196.573 8      -799.298 8        48.295               
G16  25793108.744 8 135543726.733 8     -2887.049 8        49.426               
G19  25438153.755 8 133678384.304 8      2441.545 8        49.811               
G10  27354414.018 7 143748405.367 7       382.402 7        43.561               
G03  24398856.123 8 128216832.061 8       467.570 8        50.775               
> 2012 09 14 12 52 22.0000000  0  5                                             
G06  25432364.978 8 133647994.101 8      -795.961 8        48.349               
G16  25793660.987 8 135546615.025 8     -2889.115 8        49.255               
G19  25437689.571 8 133675944.433 8      2440.481 8        48.899               
G10  27354340.505 7 143748021.649 7       383.751 7        44.741               
G03  24398767.457 8 128216365.830 8       465.908 8        50.474               
> 2012 09 14 12 52 23.0000000  0  5                                             
G06  25432513.898 7 133648792.276 7      -798.565 7        47.250               
G16  25794207.975 8 135549503.494 8     -2889.977 8        49.917               
G19  25437226.549 8 133673504.996 8      2441.220 8        48.959               
G10  27354266.420 7 143747638.512 7       381.577 7        44.896               
G03  24398678.434 8 128215900.292 8       466.431 8        50.463               
> 2012 09 14 12 52 24.0000000  0  5                                             
G06  25432663.891 7 133649591.091 7      -799.191 7        47.511               
G16  25794758.234 8 135552392.143 8     -2889.988 8        49.342               
G19  25436762.008 8 133671065.972 8      2439.354 8        48.775               
G10  27354196.124 7 143747255.929 7       382.270 7        45.573               
G03  24398589.196 8 128215435.453 8       464.079 8        50.223               
> 2012 09 14 12 52 25.0000000  0  5                                             
G06  25432816.689 7 133650390.520 7      -799.055 7        47.629               
G16  25795306.777 8 135555280.971 8     -2887.510 8        49.002               
G19  25436298.700 8 133668627.376 8      2439.129 8        49.731               
G10  27354126.613 7 143746873.913 7       384.407 7        44.844               
G03  24398500.369 8 128214971.311 8       462.530 8        51.595               
> 2012 09 14 12 52 26.0000000  0  5                                             
G06  25432968.808 8 133651190.568 8      -800.300 8        49.014               
G16  25795855.839 8 135558169.975 8     -2888.891 8        48.956               
G19  25435832.855 8 133666189.218 8      2437.158 8        49.953               
G10  27354053.404 7 143746492.485 7       381.632 7        44.983               
G03  24398412.579 8 128214507.861 8       463.863 8        51.473               
> 2012 09 14 12 52 27.0000000  0  5                                             
G06  25433118.639 7 133651991.248 7      -797.961 7        47.428               
G16  25796404.614 8 135561059.166 8     -2890.726 8        49.477               
G19  25435368.242 8 133663751.479 8      2435.590 8        48.317               
G10  27353979.533 7 143746111.618 7       385.546 7        44.410               
G03  24398325.110 8 128214045.116 8       460.703 8        51.854               
> 2012 09 14 12 52 28.0000000  0  5                                             
G06  25433274.350 7 133652792.564 7      -802.096 7        47.343               
G16  25796955.713 8 135563948.527 8     -2889.224 8        49.197               
G19  25434904.880 8 133661314.174 8      2437.326 8        48.977               
G10  27353908.093 7 143745731.335 7       378.749 7        43.654               
G03  24398237.355 8 128213583.062 8       460.990 8        50.628               
> 2012 09 14 12 52 29.0000000  0  5                                             
G06  25433427.756 7 133653594.502 7      -801.839 7        47.923               
G16  25797505.203 8 135566838.064 8     -2890.237 8        49.360               
G19  25434441.322 8 133658877.293 8      2436.488 8        49.976               
G10  27353834.455 7 143745351.613 7       382.524 7        43.243               
G03  24398150.083 8 128213121.712 8       460.827 8        51.877               
> 2012 09 14 12 52 30.0000000  0  5                                             
G06  25433582.501 8 133654397.077 8      -801.463 8        48.072               
G16  25798055.497 8 135569727.775 8     -2890.578 8        49.256               
G19  25433979.569 8 133656440.840 8      2433.874 8        49.156               
G10  27353762.782 7 143744972.457 7       375.799 7        43.198               
G03  24398062.685 8 128212661.058 8       460.231 8        52.806               
> 2012 09 14 12 52 31.0000000  0  5                                             
G06  25433733.691 7 133655200.269 7      -806.040 7        47.993               
G16  25798604.702 8 135572617.664 8     -2888.151 8        48.718               
G19  25433515.564 8 133654004.792 8      2435.988 8        49.278               
G10  27353690.019 7 143744593.871 7       377.317 7        44.102               
G03  24397974.662 8 128212201.097 8       458.299 8        52.089               
> 2012 09 14 12 52 32.0000000  0  5                                             
G06  25433886.167 7 133656004.079 7      -806.250 7        47.775               
G16  25799156.622 8 135575507.739 8     -2890.784 8        48.513               
G19  25433052.721 8 133651569.192 8      2434.286 8        48.792               
G10  27353617.328 7 143744215.860 7       377.904 7        44.809               
G03  24397887.408 8 128211741.837 8       460.287 8        50.466               
> 2012 09 14 12 52 33.0000000  0  5                                             
G06  25434041.146 8 133656808.510 8      -803.579 8        48.781               
G16  25799706.006 8 135578397.974 8     -2889.363 8        48.641               
G19  25432592.272 8 133649134.019 8      2436.185 8        48.633               
G10  27353544.458 7 143743838.419 7       375.935 7        45.273               
G03  24397798.760 8 128211283.269 8       460.566 8        50.075               
> 2012 09 14 12 52 34.0000000  0  5                                             
G06  25434195.123 8 133657613.582 8      -807.500 8        49.216               
G16  25800256.282 8 135581288.393 8     -2891.479 8        48.996               
G19  25432126.783 8 133646699.262 8      2434.675 8        49.543               
G10  27353473.036 7 143743461.547 7       377.746 7        45.576               
G03  24397710.880 8 128210825.406 8       457.885 8        50.235               
> 2012 09 14 12 52 35.0000000  0  5                                             
G06  25434349.601 7 133658419.281 7      -806.245 7        47.793               
G16  25800805.897 8 135584178.988 8     -2889.130 8        48.934               
G19  25431663.422 8 133644264.948 8      2434.957 8        49.734               
G10  27353403.775 7 143743085.246 7       376.679 7        45.432               
G03  24397622.946 8 128210368.231 8       457.233 8        50.800               
> 2012 09 14 12 52 36.0000000  0  5                                             
G06  25434504.865 7 133659225.611 7      -806.800 7        47.413               
G16  25801355.441 8 135587069.761 8     -2890.397 8        49.006               
G19  25431198.845 8 133641831.059 8      2432.442 8        50.149               
G10  27353331.817 7 143742709.514 7       378.288 7        45.240               
G03  24397535.120 8 128209911.757 8       453.223 8        51.316               
> 2012 09 14 12 52 37.0000000  0  5                                             
G06  25434657.019 8 133660032.571 8      -806.677 8        49.255               
G16  25801904.628 8 135589960.715 8     -2888.734 8        48.743               
G19  25430734.715 8 133639397.596 8      2433.181 8        51.122               
G10  27353260.752 7 143742334.347 7       373.876 7        44.179               
G03  24397448.366 8 128209455.983 8       455.263 8        51.269               
> 2012 09 14 12 52 38.0000000  0  5                                             
G06  25434809.531 8 133660840.165 8      -809.337 8        48.318               
G16  25802453.207 8 135592851.844 8     -2892.762 8        48.264               
G19  25430269.620 8 133636964.568 8      2433.832 8        51.235               
G10  27353190.258 7 143741959.763 7       372.247 7        43.830               
G03  24397362.666 8 128209000.909 8       454.979 8        50.291               
> 2012 09 14 12 52 39.0000000  0  5                                             
G06  25434963.848 8 133661648.379 8      -808.940 8        49.241               
G16  25803003.591 8 135595743.155 8     -2890.376 8        49.386               
G19  25429805.311 8 133634531.971 8      2431.897 8        49.209               
G10  27353116.173 7 143741585.742 7       374.589 7        44.291               
G03  24397275.126 8 128208546.525 8       453.669 8        50.102               
